{"type":"FeatureCollection","crs":{"type":"name","properties":{"name":"EPSG:4326"}},"features":[{"type":"Feature","id":1,"geometry":{"type":"Point","coordinates":[-73.8472019292043,40.8947134741554]},"properties":{"FID":1,"Name":"Wakefield","Stacked":1,"AnnoLine1":"Wakefield","AnnoLine2":" ","AnnoLine3":" ","AnnoAngle":0,"Borough":"Bronx"}},{"type":"Feature","id":2,"geometry":{"type":"Point","coordinates":[-73.8299405100009,40.8743024871941]},"properties":{"FID":2,"Name":"Co-op City","Stacked":2,"AnnoLine1":"Co-op","AnnoLine2":"City","AnnoLine3":" ","AnnoAngle":0,"Borough":"Bronx"}},{"type":"Feature","id":3,"geometry":{"type":"Point","coordinates":[-73.8278078491621,40.8875639741792]},"properties":{"FID":3,"Name":"Eastchester","Stacked":1,"AnnoLine1":"Eastchester","AnnoLine2":" ","AnnoLine3":" ","AnnoAngle":0,"Borough":"Bronx"}},{"type":"Feature","id":4,"geometry":{"type":"Point","coordinates":[-73.9056440233656,40.8954457225429]},"properties":{"FID":4,"Name":"Fieldston","Stacked":1,"AnnoLine1":"Fieldston","AnnoLine2":" ","AnnoLine3":" ","AnnoAngle":0,"Borough":"Bronx"}},{"type":"Feature","id":5,"geometry":{"type":"Point","coordinates":[-73.9125868904809,40.8908427883884]},"properties":{"FID":5,"Name":"Riverdale","Stacked":1,"AnnoLine1":"Riverdale","AnnoLine2":" ","AnnoLine3":" ","AnnoAngle":0,"Borough":"Bronx"}},{"type":"Feature","id":6,"geometry":{"type":"Point","coordinates":[-73.9028194129509,40.8816956642597]},"properties":{"FID":6,"Name":"Kingsbridge","Stacked":1,"AnnoLine1":"Kingsbridge","AnnoLine2":" ","AnnoLine3":" ","AnnoAngle":0,"Borough":"Bronx"}},{"type":"Feature","id":7,"geometry":{"type":"Point","coordinates":[-74.0795543894264,40.5802556413166]},"properties":{"FID":7,"Name":"South Beach","Stacked":2,"AnnoLine1":"South","AnnoLine2":"Beach","AnnoLine3":" ","AnnoAngle":0,"Borough":"Staten Island"}},{"type":"Feature","id":8,"geometry":{"type":"Point","coordinates":[-73.9106610865368,40.8765590705761]},"properties":{"FID":8,"Name":"Marble Hill","Stacked":2,"AnnoLine1":"Marble","AnnoLine2":"Hill","AnnoLine3":" ","AnnoAngle":0,"Borough":"Manhattan"}},{"type":"Feature","id":9,"geometry":{"type":"Point","coordinates":[-74.1294357511802,40.6336775420899]},"properties":{"FID":9,"Name":"Port Richmond","Stacked":2,"AnnoLine1":"Port","AnnoLine2":"Richmond","AnnoLine3":" ","AnnoAngle":0,"Borough":"Staten Island"}},{"type":"Feature","id":10,"geometry":{"type":"Point","coordinates":[-73.8673163834677,40.898280909675]},"properties":{"FID":10,"Name":"Woodlawn","Stacked":1,"AnnoLine1":"Woodlawn","AnnoLine2":" ","AnnoLine3":" ","AnnoAngle":0,"Borough":"Bronx"}},{"type":"Feature","id":11,"geometry":{"type":"Point","coordinates":[-74.1500868602157,40.63255462608]},"properties":{"FID":11,"Name":"Mariner's Harbor","Stacked":2,"AnnoLine1":"Mariner's","AnnoLine2":"Harbor","AnnoLine3":" ","AnnoAngle":0,"Borough":"Staten Island"}},{"type":"Feature","id":12,"geometry":{"type":"Point","coordinates":[-73.8793921574869,40.8772324489991]},"properties":{"FID":12,"Name":"Norwood","Stacked":1,"AnnoLine1":"Norwood","AnnoLine2":" ","AnnoLine3":" ","AnnoAngle":0,"Borough":"Bronx"}},{"type":"Feature","id":13,"geometry":{"type":"Point","coordinates":[-74.1746468279681,40.6396912145889]},"properties":{"FID":13,"Name":"Port Ivory","Stacked":2,"AnnoLine1":"Port","AnnoLine2":"Ivory","AnnoLine3":" ","AnnoAngle":0,"Borough":"Staten Island"}},{"type":"Feature","id":14,"geometry":{"type":"Point","coordinates":[-73.8574478408535,40.8810471727105]},"properties":{"FID":14,"Name":"Williamsbridge","Stacked":1,"AnnoLine1":"Williamsbridge","AnnoLine2":" ","AnnoLine3":" ","AnnoAngle":0,"Borough":"Bronx"}},{"type":"Feature","id":15,"geometry":{"type":"Point","coordinates":[-74.1191820640476,40.6133441705831]},"properties":{"FID":15,"Name":"Castleton Corners","Stacked":2,"AnnoLine1":"Castleton","AnnoLine2":"Corners","AnnoLine3":" ","AnnoAngle":0,"Borough":"Staten Island"}},{"type":"Feature","id":16,"geometry":{"type":"Point","coordinates":[-73.8357990013862,40.8668663997592]},"properties":{"FID":16,"Name":"Baychester","Stacked":1,"AnnoLine1":"Baychester","AnnoLine2":" ","AnnoLine3":" ","AnnoAngle":0,"Borough":"Bronx"}},{"type":"Feature","id":17,"geometry":{"type":"Point","coordinates":[-74.1649618054779,40.5942606067192]},"properties":{"FID":17,"Name":"New Springville","Stacked":2,"AnnoLine1":"New","AnnoLine2":"Springville","AnnoLine3":" ","AnnoAngle":0,"Borough":"Staten Island"}},{"type":"Feature","id":18,"geometry":{"type":"Point","coordinates":[-73.8547570489929,40.8574217880867]},"properties":{"FID":18,"Name":"Pelham Parkway","Stacked":1,"AnnoLine1":"Pelham Parkway","AnnoLine2":" ","AnnoLine3":" ","AnnoAngle":0,"Borough":"Bronx"}},{"type":"Feature","id":19,"geometry":{"type":"Point","coordinates":[-74.1907386753187,40.5863219761232]},"properties":{"FID":19,"Name":"Travis","Stacked":1,"AnnoLine1":"Travis","AnnoLine2":" ","AnnoLine3":" ","AnnoAngle":0,"Borough":"Staten Island"}},{"type":"Feature","id":20,"geometry":{"type":"Point","coordinates":[-73.7864898389718,40.8472549953147]},"properties":{"FID":20,"Name":"City Island","Stacked":2,"AnnoLine1":"City","AnnoLine2":"Island","AnnoLine3":" ","AnnoAngle":0,"Borough":"Bronx"}},{"type":"Feature","id":21,"geometry":{"type":"Point","coordinates":[-74.1164809114344,40.5725805432089]},"properties":{"FID":21,"Name":"New Dorp","Stacked":2,"AnnoLine1":"New","AnnoLine2":"Dorp","AnnoLine3":" ","AnnoAngle":0,"Borough":"Staten Island"}},{"type":"Feature","id":22,"geometry":{"type":"Point","coordinates":[-73.8855136036453,40.8701934563908]},"properties":{"FID":22,"Name":"Bedford Park","Stacked":2,"AnnoLine1":"Bedford","AnnoLine2":"Park","AnnoLine3":" ","AnnoAngle":0,"Borough":"Bronx"}},{"type":"Feature","id":23,"geometry":{"type":"Point","coordinates":[-74.1215674138635,40.558470465339]},"properties":{"FID":23,"Name":"Oakwood","Stacked":1,"AnnoLine1":"Oakwood","AnnoLine2":" ","AnnoLine3":" ","AnnoAngle":0,"Borough":"Staten Island"}},{"type":"Feature","id":24,"geometry":{"type":"Point","coordinates":[-73.9104173884742,40.855735364915]},"properties":{"FID":24,"Name":"University Heights","Stacked":2,"AnnoLine1":"University","AnnoLine2":"Heights","AnnoLine3":" ","AnnoAngle":0,"Borough":"Bronx"}},{"type":"Feature","id":25,"geometry":{"type":"Point","coordinates":[-74.1493252993835,40.5494884480227]},"properties":{"FID":25,"Name":"Great Kills","Stacked":2,"AnnoLine1":"Great","AnnoLine2":"Kills","AnnoLine3":" ","AnnoAngle":0,"Borough":"Staten Island"}},{"type":"Feature","id":26,"geometry":{"type":"Point","coordinates":[-73.9196730202482,40.8479062119269]},"properties":{"FID":26,"Name":"Morris Heights","Stacked":2,"AnnoLine1":"Morris","AnnoLine2":"Heights","AnnoLine3":" ","AnnoAngle":0,"Borough":"Bronx"}},{"type":"Feature","id":27,"geometry":{"type":"Point","coordinates":[-74.1643322930248,40.5422389648067]},"properties":{"FID":27,"Name":"Eltingville","Stacked":1,"AnnoLine1":"Eltingville","AnnoLine2":" ","AnnoLine3":" ","AnnoAngle":0,"Borough":"Staten Island"}},{"type":"Feature","id":28,"geometry":{"type":"Point","coordinates":[-73.8964279822117,40.8610050856248]},"properties":{"FID":28,"Name":"Fordham","Stacked":1,"AnnoLine1":"Fordham","AnnoLine2":" ","AnnoLine3":" ","AnnoAngle":0,"Borough":"Bronx"}},{"type":"Feature","id":29,"geometry":{"type":"Point","coordinates":[-74.178550154784,40.5381223907915]},"properties":{"FID":29,"Name":"Annadale","Stacked":1,"AnnoLine1":"Annadale","AnnoLine2":" ","AnnoLine3":" ","AnnoAngle":0,"Borough":"Staten Island"}},{"type":"Feature","id":30,"geometry":{"type":"Point","coordinates":[-73.8873575936978,40.8427044438412]},"properties":{"FID":30,"Name":"East Tremont","Stacked":2,"AnnoLine1":"East","AnnoLine2":"Tremont","AnnoLine3":" ","AnnoAngle":0,"Borough":"Bronx"}},{"type":"Feature","id":31,"geometry":{"type":"Point","coordinates":[-74.2052473266909,40.5419758387532]},"properties":{"FID":31,"Name":"Woodrow","Stacked":1,"AnnoLine1":"Woodrow","AnnoLine2":" ","AnnoLine3":" ","AnnoAngle":0,"Borough":"Staten Island"}},{"type":"Feature","id":32,"geometry":{"type":"Point","coordinates":[-73.8777461642022,40.8394833424143]},"properties":{"FID":32,"Name":"West Farms","Stacked":2,"AnnoLine1":"West","AnnoLine2":"Farms","AnnoLine3":" ","AnnoAngle":0,"Borough":"Bronx"}},{"type":"Feature","id":33,"geometry":{"type":"Point","coordinates":[-74.2465708552228,40.5053419683596]},"properties":{"FID":33,"Name":"Tottenville","Stacked":1,"AnnoLine1":"Tottenville","AnnoLine2":" ","AnnoLine3":" ","AnnoAngle":0,"Borough":"Staten Island"}},{"type":"Feature","id":34,"geometry":{"type":"Point","coordinates":[-73.9261035240097,40.8366312941415]},"properties":{"FID":34,"Name":"High  Bridge","Stacked":1,"AnnoLine1":"Highbridge","AnnoLine2":" ","AnnoLine3":" ","AnnoAngle":0,"Borough":"Bronx"}},{"type":"Feature","id":35,"geometry":{"type":"Point","coordinates":[-74.080554985698,40.6373243060908]},"properties":{"FID":35,"Name":"Tompkinsville","Stacked":1,"AnnoLine1":"Tompkinsville","AnnoLine2":" ","AnnoLine3":" ","AnnoAngle":0,"Borough":"Staten Island"}},{"type":"Feature","id":36,"geometry":{"type":"Point","coordinates":[-73.9094230316301,40.819762651318]},"properties":{"FID":36,"Name":"Melrose","Stacked":1,"AnnoLine1":"Melrose","AnnoLine2":" ","AnnoLine3":" ","AnnoAngle":0,"Borough":"Bronx"}},{"type":"Feature","id":37,"geometry":{"type":"Point","coordinates":[-74.0962917640881,40.6192013427969]},"properties":{"FID":37,"Name":"Silver Lake","Stacked":2,"AnnoLine1":"Silver","AnnoLine2":"Lake","AnnoLine3":" ","AnnoAngle":0,"Borough":"Staten Island"}},{"type":"Feature","id":38,"geometry":{"type":"Point","coordinates":[-73.9161013002518,40.8062470271978]},"properties":{"FID":38,"Name":"Mott Haven","Stacked":1,"AnnoLine1":"Mott Haven","AnnoLine2":" ","AnnoLine3":" ","AnnoAngle":0,"Borough":"Bronx"}},{"type":"Feature","id":39,"geometry":{"type":"Point","coordinates":[-74.0971269933967,40.6127683911426]},"properties":{"FID":39,"Name":"Sunnyside","Stacked":1,"AnnoLine1":"Sunnyside","AnnoLine2":" ","AnnoLine3":" ","AnnoAngle":0,"Borough":"Staten Island"}},{"type":"Feature","id":40,"geometry":{"type":"Point","coordinates":[-73.9132228180371,40.8016719048082]},"properties":{"FID":40,"Name":"Port Morris","Stacked":2,"AnnoLine1":"Port","AnnoLine2":"Morris","AnnoLine3":" ","AnnoAngle":0,"Borough":"Bronx"}},{"type":"Feature","id":41,"geometry":{"type":"Point","coordinates":[-73.9610145545987,40.6436834277589]},"properties":{"FID":41,"Name":"Ditmas Park","Stacked":2,"AnnoLine1":"Ditmas","AnnoLine2":"Park","AnnoLine3":" ","AnnoAngle":0,"Borough":"Brooklyn"}},{"type":"Feature","id":42,"geometry":{"type":"Point","coordinates":[-73.8957896203472,40.8151073257486]},"properties":{"FID":42,"Name":"Longwood","Stacked":1,"AnnoLine1":"Longwood","AnnoLine2":" ","AnnoLine3":" ","AnnoAngle":0,"Borough":"Bronx"}},{"type":"Feature","id":43,"geometry":{"type":"Point","coordinates":[-73.9371882289378,40.6609548105224]},"properties":{"FID":43,"Name":"Wingate","Stacked":1,"AnnoLine1":"Wingate","AnnoLine2":" ","AnnoLine3":" ","AnnoAngle":0,"Borough":"Brooklyn"}},{"type":"Feature","id":44,"geometry":{"type":"Point","coordinates":[-73.8833164746311,40.809738159064]},"properties":{"FID":44,"Name":"Hunts Point","Stacked":2,"AnnoLine1":"Hunts","AnnoLine2":"Point","AnnoLine3":" ","AnnoAngle":0,"Borough":"Bronx"}},{"type":"Feature","id":45,"geometry":{"type":"Point","coordinates":[-73.9268835458915,40.655580561227]},"properties":{"FID":45,"Name":"Rugby","Stacked":1,"AnnoLine1":"Rugby","AnnoLine2":" ","AnnoLine3":" ","AnnoAngle":0,"Borough":"Brooklyn"}},{"type":"Feature","id":46,"geometry":{"type":"Point","coordinates":[-73.9015079111818,40.823600267606]},"properties":{"FID":46,"Name":"Morrisania","Stacked":1,"AnnoLine1":"Morrisania","AnnoLine2":" ","AnnoLine3":" ","AnnoAngle":0,"Borough":"Bronx"}},{"type":"Feature","id":47,"geometry":{"type":"Point","coordinates":[-74.080158815332,40.609198677818]},"properties":{"FID":47,"Name":"Park Hill","Stacked":2,"AnnoLine1":"Park","AnnoLine2":"Hill","AnnoLine3":" ","AnnoAngle":0,"Borough":"Staten Island"}},{"type":"Feature","id":48,"geometry":{"type":"Point","coordinates":[-73.8657475056785,40.8210204804122]},"properties":{"FID":48,"Name":"Soundview","Stacked":1,"AnnoLine1":"Soundview","AnnoLine2":" ","AnnoLine3":" ","AnnoAngle":0,"Borough":"Bronx"}},{"type":"Feature","id":49,"geometry":{"type":"Point","coordinates":[-74.1330429231181,40.6210987067046]},"properties":{"FID":49,"Name":"Westerleigh","Stacked":1,"AnnoLine1":"Westerleigh","AnnoLine2":" ","AnnoLine3":" ","AnnoAngle":0,"Borough":"Staten Island"}},{"type":"Feature","id":50,"geometry":{"type":"Point","coordinates":[-73.8541455674259,40.8065594001113]},"properties":{"FID":50,"Name":"Clason Point","Stacked":2,"AnnoLine1":"Clason","AnnoLine2":"Point","AnnoLine3":" ","AnnoAngle":0,"Borough":"Bronx"}},{"type":"Feature","id":51,"geometry":{"type":"Point","coordinates":[-74.1531539538535,40.6201797452941]},"properties":{"FID":51,"Name":"Graniteville","Stacked":1,"AnnoLine1":"Graniteville","AnnoLine2":" ","AnnoLine3":" ","AnnoAngle":0,"Borough":"Staten Island"}},{"type":"Feature","id":52,"geometry":{"type":"Point","coordinates":[-73.8163514155164,40.8151175411098]},"properties":{"FID":52,"Name":"Throgs Neck","Stacked":1,"AnnoLine1":"Throgs Neck","AnnoLine2":" ","AnnoLine3":" ","AnnoAngle":0,"Borough":"Bronx"}},{"type":"Feature","id":53,"geometry":{"type":"Point","coordinates":[-74.1651056971283,40.6353333347298]},"properties":{"FID":53,"Name":"Arlington","Stacked":1,"AnnoLine1":"Arlington","AnnoLine2":" ","AnnoLine3":" ","AnnoAngle":0,"Borough":"Staten Island"}},{"type":"Feature","id":54,"geometry":{"type":"Point","coordinates":[-73.8241006657196,40.8442542254442]},"properties":{"FID":54,"Name":"Country Club","Stacked":2,"AnnoLine1":"Country","AnnoLine2":"Club","AnnoLine3":" ","AnnoAngle":0,"Borough":"Bronx"}},{"type":"Feature","id":55,"geometry":{"type":"Point","coordinates":[-74.0671250932788,40.5963208026767]},"properties":{"FID":55,"Name":"Arrochar","Stacked":1,"AnnoLine1":"Arrochar","AnnoLine2":" ","AnnoLine3":" ","AnnoAngle":0,"Borough":"Staten Island"}},{"type":"Feature","id":56,"geometry":{"type":"Point","coordinates":[-73.856004513389,40.8379461084155]},"properties":{"FID":56,"Name":"Parkchester","Stacked":1,"AnnoLine1":"Parkchester","AnnoLine2":" ","AnnoLine3":" ","AnnoAngle":0,"Borough":"Bronx"}},{"type":"Feature","id":57,"geometry":{"type":"Point","coordinates":[-74.0766758269859,40.5982765910491]},"properties":{"FID":57,"Name":"Grasmere","Stacked":1,"AnnoLine1":"Grasmere","AnnoLine2":" ","AnnoLine3":" ","AnnoAngle":0,"Borough":"Staten Island"}},{"type":"Feature","id":58,"geometry":{"type":"Point","coordinates":[-73.8421954798095,40.8406277835881]},"properties":{"FID":58,"Name":"Westchester Square","Stacked":2,"AnnoLine1":"Westchester","AnnoLine2":"Square","AnnoLine3":" ","AnnoAngle":0,"Borough":"Bronx"}},{"type":"Feature","id":59,"geometry":{"type":"Point","coordinates":[-74.0875126475995,40.5963371444831]},"properties":{"FID":59,"Name":"Old Town","Stacked":2,"AnnoLine1":"Old","AnnoLine2":"Town","AnnoLine3":" ","AnnoAngle":0,"Borough":"Staten Island"}},{"type":"Feature","id":60,"geometry":{"type":"Point","coordinates":[-73.8663005924333,40.8436167581435]},"properties":{"FID":60,"Name":"Van Nest","Stacked":2,"AnnoLine1":"Van","AnnoLine2":"Nest","AnnoLine3":" ","AnnoAngle":0,"Borough":"Bronx"}},{"type":"Feature","id":61,"geometry":{"type":"Point","coordinates":[-74.0964005230484,40.588681177071]},"properties":{"FID":61,"Name":"Dongan Hills","Stacked":2,"AnnoLine1":"Dongan","AnnoLine2":"Hills","AnnoLine3":" ","AnnoAngle":0,"Borough":"Staten Island"}},{"type":"Feature","id":62,"geometry":{"type":"Point","coordinates":[-73.850403187122,40.8475573517591]},"properties":{"FID":62,"Name":"Morris Park","Stacked":1,"AnnoLine1":"Morris Park","AnnoLine2":" ","AnnoLine3":" ","AnnoAngle":0,"Borough":"Bronx"}},{"type":"Feature","id":63,"geometry":{"type":"Point","coordinates":[-74.0934841311123,40.5735351317403]},"properties":{"FID":63,"Name":"Midland Beach","Stacked":2,"AnnoLine1":"Midland","AnnoLine2":"Beach","AnnoLine3":" ","AnnoAngle":0,"Borough":"Staten Island"}},{"type":"Feature","id":64,"geometry":{"type":"Point","coordinates":[-73.8884533809599,40.8572853895302]},"properties":{"FID":64,"Name":"Belmont","Stacked":1,"AnnoLine1":"Belmont","AnnoLine2":" ","AnnoLine3":" ","AnnoAngle":0,"Borough":"Bronx"}},{"type":"Feature","id":65,"geometry":{"type":"Point","coordinates":[-73.9171919124007,40.8814032697638]},"properties":{"FID":65,"Name":"Spuyten Duyvil","Stacked":2,"AnnoLine1":"Spuyten","AnnoLine2":"Duyvil","AnnoLine3":" ","AnnoAngle":0,"Borough":"Bronx"}},{"type":"Feature","id":66,"geometry":{"type":"Point","coordinates":[-74.1058574576488,40.5762238132096]},"properties":{"FID":66,"Name":"Grant City","Stacked":2,"AnnoLine1":"Grant","AnnoLine2":"City","AnnoLine3":" ","AnnoAngle":0,"Borough":"Staten Island"}},{"type":"Feature","id":67,"geometry":{"type":"Point","coordinates":[-73.9045319769806,40.9085511277419]},"properties":{"FID":67,"Name":"North Riverdale","Stacked":2,"AnnoLine1":"North","AnnoLine2":"Riverdale","AnnoLine3":" ","AnnoAngle":0,"Borough":"Bronx"}},{"type":"Feature","id":68,"geometry":{"type":"Point","coordinates":[-74.104328545675,40.5642637168677]},"properties":{"FID":68,"Name":"New Dorp Beach","Stacked":3,"AnnoLine1":"New","AnnoLine2":"Dorp","AnnoLine3":"Beach","AnnoAngle":0,"Borough":"Staten Island"}},{"type":"Feature","id":69,"geometry":{"type":"Point","coordinates":[-73.8320751835314,40.8506496988714]},"properties":{"FID":69,"Name":"Pelham Bay","Stacked":2,"AnnoLine1":"Pelham","AnnoLine2":"Bay","AnnoLine3":" ","AnnoAngle":0,"Borough":"Bronx"}},{"type":"Feature","id":70,"geometry":{"type":"Point","coordinates":[-73.8262041577266,40.8265878018384]},"properties":{"FID":70,"Name":"Schuylerville","Stacked":1,"AnnoLine1":"Schuylerville","AnnoLine2":" ","AnnoLine3":" ","AnnoAngle":0,"Borough":"Bronx"}},{"type":"Feature","id":71,"geometry":{"type":"Point","coordinates":[-73.8138865378437,40.8219944026645]},"properties":{"FID":71,"Name":"Edgewater Park","Stacked":2,"AnnoLine1":"Edgewater","AnnoLine2":"Park","AnnoLine3":" ","AnnoAngle":0,"Borough":"Bronx"}},{"type":"Feature","id":72,"geometry":{"type":"Point","coordinates":[-73.8480287001539,40.8190226597154]},"properties":{"FID":72,"Name":"Castle Hill","Stacked":2,"AnnoLine1":"Castle","AnnoLine2":"Hill","AnnoLine3":" ","AnnoAngle":0,"Borough":"Bronx"}},{"type":"Feature","id":73,"geometry":{"type":"Point","coordinates":[-73.8633250289368,40.8713790743482]},"properties":{"FID":73,"Name":"Olinville","Stacked":1,"AnnoLine1":"Olinville","AnnoLine2":" ","AnnoLine3":" ","AnnoAngle":0,"Borough":"Bronx"}},{"type":"Feature","id":74,"geometry":{"type":"Point","coordinates":[-73.8416133532461,40.8629739163226]},"properties":{"FID":74,"Name":"Pelham Gardens","Stacked":2,"AnnoLine1":"Pelham","AnnoLine2":"Gardens","AnnoLine3":" ","AnnoAngle":0,"Borough":"Bronx"}},{"type":"Feature","id":75,"geometry":{"type":"Point","coordinates":[-73.9155908446502,40.8342920906856]},"properties":{"FID":75,"Name":"Concourse","Stacked":1,"AnnoLine1":"Concourse","AnnoLine2":" ","AnnoLine3":" ","AnnoAngle":0,"Borough":"Bronx"}},{"type":"Feature","id":76,"geometry":{"type":"Point","coordinates":[-73.8505366503021,40.8297825826151]},"properties":{"FID":76,"Name":"Unionport","Stacked":1,"AnnoLine1":"Unionport","AnnoLine2":" ","AnnoLine3":" ","AnnoAngle":0,"Borough":"Bronx"}},{"type":"Feature","id":77,"geometry":{"type":"Point","coordinates":[-73.8480841270932,40.8845695985714]},"properties":{"FID":77,"Name":"Edenwald","Stacked":1,"AnnoLine1":"Edenwald","AnnoLine2":" ","AnnoLine3":" ","AnnoAngle":0,"Borough":"Bronx"}},{"type":"Feature","id":78,"geometry":{"type":"Point","coordinates":[-74.0306221446652,40.6258093034825]},"properties":{"FID":78,"Name":"Bay Ridge","Stacked":1,"AnnoLine1":"Bay Ridge","AnnoLine2":" ","AnnoLine3":" ","AnnoAngle":0,"Borough":"Brooklyn"}},{"type":"Feature","id":79,"geometry":{"type":"Point","coordinates":[-73.9951814227038,40.6110171388277]},"properties":{"FID":79,"Name":"Bensonhurst","Stacked":1,"AnnoLine1":"Bensonhurst","AnnoLine2":" ","AnnoLine3":" ","AnnoAngle":0,"Borough":"Brooklyn"}},{"type":"Feature","id":80,"geometry":{"type":"Point","coordinates":[-74.0103176310736,40.6451111922271]},"properties":{"FID":80,"Name":"Sunset Park","Stacked":2,"AnnoLine1":"Sunset","AnnoLine2":"Park","AnnoLine3":" ","AnnoAngle":0,"Borough":"Brooklyn"}},{"type":"Feature","id":81,"geometry":{"type":"Point","coordinates":[-73.9542423642621,40.73020924649]},"properties":{"FID":81,"Name":"Greenpoint","Stacked":1,"AnnoLine1":"Greenpoint","AnnoLine2":" ","AnnoLine3":" ","AnnoAngle":0,"Borough":"Brooklyn"}},{"type":"Feature","id":82,"geometry":{"type":"Point","coordinates":[-73.9734723080877,40.5952682475372]},"properties":{"FID":82,"Name":"Gravesend","Stacked":1,"AnnoLine1":"Gravesend","AnnoLine2":" ","AnnoLine3":" ","AnnoAngle":0,"Borough":"Brooklyn"}},{"type":"Feature","id":83,"geometry":{"type":"Point","coordinates":[-73.9650959150693,40.5768332968052]},"properties":{"FID":83,"Name":"Brighton Beach","Stacked":2,"AnnoLine1":"Brighton","AnnoLine2":"Beach","AnnoLine3":" ","AnnoAngle":0,"Borough":"Brooklyn"}},{"type":"Feature","id":84,"geometry":{"type":"Point","coordinates":[-73.943187825641,40.5868983606668]},"properties":{"FID":84,"Name":"Sheepshead Bay","Stacked":2,"AnnoLine1":"Sheepshead","AnnoLine2":"Bay","AnnoLine3":" ","AnnoAngle":0,"Borough":"Brooklyn"}},{"type":"Feature","id":85,"geometry":{"type":"Point","coordinates":[-73.9574398326258,40.6144407521502]},"properties":{"FID":85,"Name":"Manhattan Terrace","Stacked":2,"AnnoLine1":"Manhattan","AnnoLine2":"Terrace","AnnoLine3":" ","AnnoAngle":0,"Borough":"Brooklyn"}},{"type":"Feature","id":86,"geometry":{"type":"Point","coordinates":[-73.9584024939912,40.6363341333329]},"properties":{"FID":86,"Name":"Flatbush","Stacked":1,"AnnoLine1":"Flatbush","AnnoLine2":" ","AnnoLine3":" ","AnnoAngle":0,"Borough":"Brooklyn"}},{"type":"Feature","id":87,"geometry":{"type":"Point","coordinates":[-74.1391677032573,40.5539962291369]},"properties":{"FID":87,"Name":"Bay Terrace","Stacked":2,"AnnoLine1":"Bay","AnnoLine2":"Terrace","AnnoLine3":" ","AnnoAngle":0,"Borough":"Staten Island"}},{"type":"Feature","id":88,"geometry":{"type":"Point","coordinates":[-73.9432926166305,40.6708374273203]},"properties":{"FID":88,"Name":"Crown Heights","Stacked":2,"AnnoLine1":"Crown","AnnoLine2":"Heights","AnnoLine3":" ","AnnoAngle":0,"Borough":"Brooklyn"}},{"type":"Feature","id":89,"geometry":{"type":"Point","coordinates":[-73.9361039836979,40.6417260115937]},"properties":{"FID":89,"Name":"East Flatbush","Stacked":1,"AnnoLine1":"East Flatbush","AnnoLine2":" ","AnnoLine3":" ","AnnoAngle":0,"Borough":"Brooklyn"}},{"type":"Feature","id":90,"geometry":{"type":"Point","coordinates":[-74.1917425544433,40.5319201348521]},"properties":{"FID":90,"Name":"Huguenot","Stacked":1,"AnnoLine1":"Huguenot","AnnoLine2":" ","AnnoLine3":" ","AnnoAngle":0,"Borough":"Staten Island"}},{"type":"Feature","id":91,"geometry":{"type":"Point","coordinates":[-73.9804225416593,40.6423902014888]},"properties":{"FID":91,"Name":"Kensington","Stacked":1,"AnnoLine1":"Kensington","AnnoLine2":" ","AnnoLine3":" ","AnnoAngle":0,"Borough":"Brooklyn"}},{"type":"Feature","id":92,"geometry":{"type":"Point","coordinates":[-74.2198325716698,40.5247075880731]},"properties":{"FID":92,"Name":"Pleasant Plains","Stacked":2,"AnnoLine1":"Pleasant","AnnoLine2":"Plains","AnnoLine3":" ","AnnoAngle":0,"Borough":"Staten Island"}},{"type":"Feature","id":93,"geometry":{"type":"Point","coordinates":[-73.9800748411335,40.6569540821073]},"properties":{"FID":93,"Name":"Windsor Terrace","Stacked":2,"AnnoLine1":"Windsor","AnnoLine2":"Terrace","AnnoLine3":" ","AnnoAngle":0,"Borough":"Brooklyn"}},{"type":"Feature","id":94,"geometry":{"type":"Point","coordinates":[-74.2295050100657,40.5060898614146]},"properties":{"FID":94,"Name":"Butler Manor","Stacked":2,"AnnoLine1":"Butler","AnnoLine2":"Manor","AnnoLine3":" ","AnnoAngle":0,"Borough":"Staten Island"}},{"type":"Feature","id":95,"geometry":{"type":"Point","coordinates":[-73.9648606757883,40.6768305130435]},"properties":{"FID":95,"Name":"Prospect Heights","Stacked":2,"AnnoLine1":"Prospect","AnnoLine2":"Heights","AnnoLine3":" ","AnnoAngle":0,"Borough":"Brooklyn"}},{"type":"Feature","id":96,"geometry":{"type":"Point","coordinates":[-74.2321592687574,40.5305396955008]},"properties":{"FID":96,"Name":"Charleston","Stacked":1,"AnnoLine1":"Charleston","AnnoLine2":" ","AnnoLine3":" ","AnnoAngle":0,"Borough":"Staten Island"}},{"type":"Feature","id":97,"geometry":{"type":"Point","coordinates":[-73.9102367766626,40.6639581935696]},"properties":{"FID":97,"Name":"Brownsville","Stacked":1,"AnnoLine1":"Brownsville","AnnoLine2":" ","AnnoLine3":" ","AnnoAngle":0,"Borough":"Brooklyn"}},{"type":"Feature","id":98,"geometry":{"type":"Point","coordinates":[-74.2157300168262,40.5494122234579]},"properties":{"FID":98,"Name":"Rossville","Stacked":1,"AnnoLine1":"Rossville","AnnoLine2":" ","AnnoLine3":" ","AnnoAngle":0,"Borough":"Staten Island"}},{"type":"Feature","id":99,"geometry":{"type":"Point","coordinates":[-73.9581167250434,40.7071526504136]},"properties":{"FID":99,"Name":"Williamsburg","Stacked":1,"AnnoLine1":"Williamsburg","AnnoLine2":" ","AnnoLine3":" ","AnnoAngle":0,"Borough":"Brooklyn"}},{"type":"Feature","id":100,"geometry":{"type":"Point","coordinates":[-74.1858882419842,40.5492940407681]},"properties":{"FID":100,"Name":"Arden Heights","Stacked":2,"AnnoLine1":"Arden","AnnoLine2":"Heights","AnnoLine3":" ","AnnoAngle":0,"Borough":"Staten Island"}},{"type":"Feature","id":101,"geometry":{"type":"Point","coordinates":[-73.9252593966369,40.6981243665295]},"properties":{"FID":101,"Name":"Bushwick","Stacked":1,"AnnoLine1":"Bushwick","AnnoLine2":" ","AnnoLine3":" ","AnnoAngle":0,"Borough":"Brooklyn"}},{"type":"Feature","id":102,"geometry":{"type":"Point","coordinates":[-74.170795639547,40.5553034558706]},"properties":{"FID":102,"Name":"Greenridge","Stacked":1,"AnnoLine1":"Greenridge","AnnoLine2":" ","AnnoLine3":" ","AnnoAngle":0,"Borough":"Staten Island"}},{"type":"Feature","id":103,"geometry":{"type":"Point","coordinates":[-73.9417863133049,40.6872398613584]},"properties":{"FID":103,"Name":"Bedford Stuyvesant","Stacked":1,"AnnoLine1":"Bedford Stuyvesant","AnnoLine2":" ","AnnoLine3":" ","AnnoAngle":0,"Borough":"Brooklyn"}},{"type":"Feature","id":104,"geometry":{"type":"Point","coordinates":[-74.1590235715378,40.5891471755149]},"properties":{"FID":104,"Name":"Heartland Village","Stacked":2,"AnnoLine1":"Heartland","AnnoLine2":"Village","AnnoLine3":" ","AnnoAngle":0,"Borough":"Staten Island"}},{"type":"Feature","id":105,"geometry":{"type":"Point","coordinates":[-73.9937836985362,40.6958719762341]},"properties":{"FID":105,"Name":"Brooklyn Heights","Stacked":2,"AnnoLine1":"Brooklyn","AnnoLine2":"Heights","AnnoLine3":" ","AnnoAngle":0,"Borough":"Brooklyn"}},{"type":"Feature","id":106,"geometry":{"type":"Point","coordinates":[-73.9212118527895,40.867692254174]},"properties":{"FID":106,"Name":"Inwood","Stacked":1,"AnnoLine1":"Inwood","AnnoLine2":" ","AnnoLine3":" ","AnnoAngle":0,"Borough":"Manhattan"}},{"type":"Feature","id":107,"geometry":{"type":"Point","coordinates":[-74.1895619552684,40.5947342542469]},"properties":{"FID":107,"Name":"Chelsea","Stacked":1,"AnnoLine1":"Chelsea","AnnoLine2":" ","AnnoLine3":" ","AnnoAngle":0,"Borough":"Staten Island"}},{"type":"Feature","id":108,"geometry":{"type":"Point","coordinates":[-73.9985628368059,40.6879279742705]},"properties":{"FID":108,"Name":"Cobble Hill","Stacked":2,"AnnoLine1":"Cobble","AnnoLine2":"Hill","AnnoLine3":" ","AnnoAngle":0,"Borough":"Brooklyn"}},{"type":"Feature","id":109,"geometry":{"type":"Point","coordinates":[-73.9496893560309,40.8236125648753]},"properties":{"FID":109,"Name":"Hamilton Heights","Stacked":2,"AnnoLine1":"Hamilton","AnnoLine2":"Heights","AnnoLine3":" ","AnnoAngle":0,"Borough":"Manhattan"}},{"type":"Feature","id":110,"geometry":{"type":"Point","coordinates":[-74.1872578838213,40.6057869135589]},"properties":{"FID":110,"Name":"Bloomfield","Stacked":1,"AnnoLine1":"Bloomfield","AnnoLine2":" ","AnnoLine3":" ","AnnoAngle":0,"Borough":"Staten Island"}},{"type":"Feature","id":111,"geometry":{"type":"Point","coordinates":[-73.9946551712041,40.6805484815512]},"properties":{"FID":111,"Name":"Carroll Gardens","Stacked":2,"AnnoLine1":"Carroll","AnnoLine2":"Gardens","AnnoLine3":" ","AnnoAngle":0,"Borough":"Brooklyn"}},{"type":"Feature","id":112,"geometry":{"type":"Point","coordinates":[-73.9573868327774,40.8169427079871]},"properties":{"FID":112,"Name":"Manhattanville","Stacked":2,"AnnoLine1":"Manhattanville","AnnoLine2":" ","AnnoLine3":" ","AnnoAngle":0,"Borough":"Manhattan"}},{"type":"Feature","id":113,"geometry":{"type":"Point","coordinates":[-74.1594109779061,40.6096000311853]},"properties":{"FID":113,"Name":"Bulls Head","Stacked":2,"AnnoLine1":"Bulls","AnnoLine2":"Head","AnnoLine3":" ","AnnoAngle":0,"Borough":"Staten Island"}},{"type":"Feature","id":114,"geometry":{"type":"Point","coordinates":[-74.0127604231957,40.6762614792501]},"properties":{"FID":114,"Name":"Red Hook","Stacked":2,"AnnoLine1":"Red","AnnoLine2":"Hook","AnnoLine3":" ","AnnoAngle":0,"Borough":"Brooklyn"}},{"type":"Feature","id":115,"geometry":{"type":"Point","coordinates":[-73.9432125606964,40.8159843462236]},"properties":{"FID":115,"Name":"Central Harlem","Stacked":2,"AnnoLine1":"Central","AnnoLine2":"Harlem","AnnoLine3":" ","AnnoAngle":0,"Borough":"Manhattan"}},{"type":"Feature","id":116,"geometry":{"type":"Point","coordinates":[-73.9532579042252,40.782690839061]},"properties":{"FID":116,"Name":"Carnegie Hill","Stacked":2,"AnnoLine1":"Carnegie","AnnoLine2":"Hill","AnnoLine3":" ","AnnoAngle":0,"Borough":"Manhattan"}},{"type":"Feature","id":117,"geometry":{"type":"Point","coordinates":[-73.9944423139098,40.673939392373]},"properties":{"FID":117,"Name":"Gowanus","Stacked":1,"AnnoLine1":"Gowanus","AnnoLine2":" ","AnnoLine3":" ","AnnoAngle":0,"Borough":"Brooklyn"}},{"type":"Feature","id":118,"geometry":{"type":"Point","coordinates":[-73.9441836650123,40.7922577407556]},"properties":{"FID":118,"Name":"East Harlem","Stacked":2,"AnnoLine1":"East","AnnoLine2":"Harlem","AnnoLine3":" ","AnnoAngle":0,"Borough":"Manhattan"}},{"type":"Feature","id":119,"geometry":{"type":"Point","coordinates":[-73.9884351237542,40.7232672779245]},"properties":{"FID":119,"Name":"Noho","Stacked":1,"AnnoLine1":"Noho","AnnoLine2":" ","AnnoLine3":" ","AnnoAngle":0,"Borough":"Manhattan"}},{"type":"Feature","id":120,"geometry":{"type":"Point","coordinates":[-73.9729071801354,40.6885355129927]},"properties":{"FID":120,"Name":"Fort Greene","Stacked":2,"AnnoLine1":"Fort","AnnoLine2":"Greene","AnnoLine3":" ","AnnoAngle":0,"Borough":"Brooklyn"}},{"type":"Feature","id":121,"geometry":{"type":"Point","coordinates":[-73.9605090690998,40.7756468436044]},"properties":{"FID":121,"Name":"Upper East Side","Stacked":3,"AnnoLine1":"Upper","AnnoLine2":"East","AnnoLine3":"Side","AnnoAngle":0,"Borough":"Manhattan"}},{"type":"Feature","id":122,"geometry":{"type":"Point","coordinates":[-74.0054167472027,40.7152371773605]},"properties":{"FID":122,"Name":"Civic Center","Stacked":2,"AnnoLine1":"Civic","AnnoLine2":"Center","AnnoLine3":" ","AnnoAngle":0,"Borough":"Manhattan"}},{"type":"Feature","id":123,"geometry":{"type":"Point","coordinates":[-73.9770517386315,40.6723287721609]},"properties":{"FID":123,"Name":"Park Slope","Stacked":2,"AnnoLine1":"Park","AnnoLine2":"Slope","AnnoLine3":" ","AnnoAngle":0,"Borough":"Brooklyn"}},{"type":"Feature","id":124,"geometry":{"type":"Point","coordinates":[-73.9471192781956,40.775938120714]},"properties":{"FID":124,"Name":"Yorkville","Stacked":1,"AnnoLine1":"Yorkville","AnnoLine2":" ","AnnoLine3":" ","AnnoAngle":0,"Borough":"Manhattan"}},{"type":"Feature","id":125,"geometry":{"type":"Point","coordinates":[-73.9887145779913,40.7485179283148]},"properties":{"FID":125,"Name":"Midtown South","Stacked":2,"AnnoLine1":"Midtown","AnnoLine2":"South","AnnoLine3":" ","AnnoAngle":0,"Borough":"Manhattan"}},{"type":"Feature","id":126,"geometry":{"type":"Point","coordinates":[-73.8766173698133,40.6823992664063]},"properties":{"FID":126,"Name":"Cypress Hills","Stacked":2,"AnnoLine1":"Cypress","AnnoLine2":"Hills","AnnoLine3":" ","AnnoAngle":0,"Borough":"Brooklyn"}},{"type":"Feature","id":127,"geometry":{"type":"Point","coordinates":[-73.9588611249027,40.7681209271748]},"properties":{"FID":127,"Name":"Lenox Hill","Stacked":2,"AnnoLine1":"Lenox","AnnoLine2":"Hill","AnnoLine3":" ","AnnoAngle":0,"Borough":"Manhattan"}},{"type":"Feature","id":128,"geometry":{"type":"Point","coordinates":[-74.1340587794359,40.5696141665571]},"properties":{"FID":128,"Name":"Richmond Town","Stacked":2,"AnnoLine1":"Richmond","AnnoLine2":"Town","AnnoLine3":" ","AnnoAngle":0,"Borough":"Staten Island"}},{"type":"Feature","id":129,"geometry":{"type":"Point","coordinates":[-73.8807000449716,40.6699339532225]},"properties":{"FID":129,"Name":"East New York","Stacked":1,"AnnoLine1":"East New York","AnnoLine2":" ","AnnoLine3":" ","AnnoAngle":0,"Borough":"Brooklyn"}},{"type":"Feature","id":130,"geometry":{"type":"Point","coordinates":[-73.9491691255785,40.7621678738248]},"properties":{"FID":130,"Name":"Roosevelt Island","Stacked":1,"AnnoLine1":"Roosevelt Island","AnnoLine2":" ","AnnoLine3":" ","AnnoAngle":56,"Borough":"Manhattan"}},{"type":"Feature","id":131,"geometry":{"type":"Point","coordinates":[-74.0666791223076,40.6097275748422]},"properties":{"FID":131,"Name":"Shore Acres","Stacked":2,"AnnoLine1":"Shore","AnnoLine2":"Acres","AnnoLine3":" ","AnnoAngle":0,"Borough":"Staten Island"}},{"type":"Feature","id":132,"geometry":{"type":"Point","coordinates":[-73.8793711044885,40.647597300345]},"properties":{"FID":132,"Name":"Starrett City","Stacked":2,"AnnoLine1":"Starrett","AnnoLine2":"City","AnnoLine3":" ","AnnoAngle":0,"Borough":"Brooklyn"}},{"type":"Feature","id":133,"geometry":{"type":"Point","coordinates":[-73.977060680089,40.7876662706082]},"properties":{"FID":133,"Name":"Upper West Side","Stacked":3,"AnnoLine1":"Upper","AnnoLine2":"West","AnnoLine3":"Side","AnnoAngle":0,"Borough":"Manhattan"}},{"type":"Feature","id":134,"geometry":{"type":"Point","coordinates":[-74.0726439096532,40.6191866877261]},"properties":{"FID":134,"Name":"Clifton","Stacked":1,"AnnoLine1":"Clifton","AnnoLine2":" ","AnnoLine3":" ","AnnoAngle":0,"Borough":"Staten Island"}},{"type":"Feature","id":135,"geometry":{"type":"Point","coordinates":[-73.9020941083721,40.6355725728567]},"properties":{"FID":135,"Name":"Canarsie","Stacked":1,"AnnoLine1":"Canarsie","AnnoLine2":" ","AnnoLine3":" ","AnnoAngle":0,"Borough":"Brooklyn"}},{"type":"Feature","id":136,"geometry":{"type":"Point","coordinates":[-73.9853392155893,40.77353715844]},"properties":{"FID":136,"Name":"Lincoln Square","Stacked":2,"AnnoLine1":"Lincoln","AnnoLine2":"Square","AnnoLine3":" ","AnnoAngle":0,"Borough":"Manhattan"}},{"type":"Feature","id":137,"geometry":{"type":"Point","coordinates":[-74.0840251143241,40.6044814220981]},"properties":{"FID":137,"Name":"Concord","Stacked":1,"AnnoLine1":"Concord","AnnoLine2":" ","AnnoLine3":" ","AnnoAngle":0,"Borough":"Staten Island"}},{"type":"Feature","id":138,"geometry":{"type":"Point","coordinates":[-73.9291144453709,40.6304542866917]},"properties":{"FID":138,"Name":"Flatlands","Stacked":1,"AnnoLine1":"Flatlands","AnnoLine2":" ","AnnoLine3":" ","AnnoAngle":0,"Borough":"Brooklyn"}},{"type":"Feature","id":139,"geometry":{"type":"Point","coordinates":[-73.9961208112487,40.7591091572782]},"properties":{"FID":139,"Name":"Clinton","Stacked":1,"AnnoLine1":"Clinton","AnnoLine2":" ","AnnoLine3":" ","AnnoAngle":0,"Borough":"Manhattan"}},{"type":"Feature","id":140,"geometry":{"type":"Point","coordinates":[-74.0977635411794,40.6068026271847]},"properties":{"FID":140,"Name":"Emerson Hill","Stacked":2,"AnnoLine1":"Emerson","AnnoLine2":"Hill","AnnoLine3":" ","AnnoAngle":0,"Borough":"Staten Island"}},{"type":"Feature","id":141,"geometry":{"type":"Point","coordinates":[-73.9081871285521,40.6063446606123]},"properties":{"FID":141,"Name":"Mill Island","Stacked":2,"AnnoLine1":"Mill","AnnoLine2":"Island","AnnoLine3":" ","AnnoAngle":0,"Borough":"Brooklyn"}},{"type":"Feature","id":142,"geometry":{"type":"Point","coordinates":[-73.9816702705606,40.7546993681663]},"properties":{"FID":142,"Name":"Midtown","Stacked":1,"AnnoLine1":"Midtown","AnnoLine2":" ","AnnoLine3":" ","AnnoAngle":0,"Borough":"Manhattan"}},{"type":"Feature","id":143,"geometry":{"type":"Point","coordinates":[-74.0980520970304,40.6356382448463]},"properties":{"FID":143,"Name":"Randall Manor","Stacked":2,"AnnoLine1":"Randall","AnnoLine2":"Manor","AnnoLine3":" ","AnnoAngle":0,"Borough":"Staten Island"}},{"type":"Feature","id":144,"geometry":{"type":"Point","coordinates":[-73.9435386493036,40.577921735192]},"properties":{"FID":144,"Name":"Manhattan Beach","Stacked":2,"AnnoLine1":"Manhattan","AnnoLine2":"Beach","AnnoLine3":" ","AnnoAngle":0,"Borough":"Brooklyn"}},{"type":"Feature","id":145,"geometry":{"type":"Point","coordinates":[-73.9783335210425,40.7483113415785]},"properties":{"FID":145,"Name":"Murray Hill","Stacked":2,"AnnoLine1":"Murray","AnnoLine2":"Hill","AnnoLine3":" ","AnnoAngle":0,"Borough":"Manhattan"}},{"type":"Feature","id":146,"geometry":{"type":"Point","coordinates":[-74.1862248191569,40.6384410734278]},"properties":{"FID":146,"Name":"Howland Hook","Stacked":2,"AnnoLine1":"Howland","AnnoLine2":"Hook","AnnoLine3":" ","AnnoAngle":0,"Borough":"Staten Island"}},{"type":"Feature","id":147,"geometry":{"type":"Point","coordinates":[-73.9886843928256,40.5743007945334]},"properties":{"FID":147,"Name":"Coney Island","Stacked":1,"AnnoLine1":"Coney Island","AnnoLine2":" ","AnnoLine3":" ","AnnoAngle":0,"Borough":"Brooklyn"}},{"type":"Feature","id":148,"geometry":{"type":"Point","coordinates":[-74.0031177842083,40.7440429693688]},"properties":{"FID":148,"Name":"Chelsea","Stacked":1,"AnnoLine1":"Chelsea","AnnoLine2":" ","AnnoLine3":" ","AnnoAngle":0,"Borough":"Manhattan"}},{"type":"Feature","id":149,"geometry":{"type":"Point","coordinates":[-74.1418182766452,40.6301549766129]},"properties":{"FID":149,"Name":"Elm Park","Stacked":2,"AnnoLine1":"Elm","AnnoLine2":"Park","AnnoLine3":" ","AnnoAngle":0,"Borough":"Staten Island"}},{"type":"Feature","id":150,"geometry":{"type":"Point","coordinates":[-73.9987536537827,40.5995269372469]},"properties":{"FID":150,"Name":"Bath Beach","Stacked":2,"AnnoLine1":"Bath","AnnoLine2":"Beach","AnnoLine3":" ","AnnoAngle":0,"Borough":"Brooklyn"}},{"type":"Feature","id":151,"geometry":{"type":"Point","coordinates":[-73.9999154768762,40.726941144745]},"properties":{"FID":151,"Name":"Greenwich Village","Stacked":2,"AnnoLine1":"Greenwich","AnnoLine2":"Village","AnnoLine3":" ","AnnoAngle":0,"Borough":"Manhattan"}},{"type":"Feature","id":152,"geometry":{"type":"Point","coordinates":[-73.9166547360197,40.6521256994187]},"properties":{"FID":152,"Name":"Remsen Village","Stacked":2,"AnnoLine1":"Remsen","AnnoLine2":"Village","AnnoLine3":" ","AnnoAngle":0,"Borough":"Brooklyn"}},{"type":"Feature","id":153,"geometry":{"type":"Point","coordinates":[-73.9904996691797,40.6331387540742]},"properties":{"FID":153,"Name":"Borough Park","Stacked":2,"AnnoLine1":"Borough","AnnoLine2":"Park","AnnoLine3":" ","AnnoAngle":0,"Borough":"Brooklyn"}},{"type":"Feature","id":154,"geometry":{"type":"Point","coordinates":[-73.9822276068725,40.7278550374535]},"properties":{"FID":154,"Name":"East Village","Stacked":2,"AnnoLine1":"East","AnnoLine2":"Village","AnnoLine3":" ","AnnoAngle":0,"Borough":"Manhattan"}},{"type":"Feature","id":155,"geometry":{"type":"Point","coordinates":[-73.8851191705741,40.6627525305083]},"properties":{"FID":155,"Name":"New Lots","Stacked":2,"AnnoLine1":"New","AnnoLine2":"Lots","AnnoLine3":" ","AnnoAngle":0,"Borough":"Brooklyn"}},{"type":"Feature","id":156,"geometry":{"type":"Point","coordinates":[-74.0193152034728,40.6192276952981]},"properties":{"FID":156,"Name":"Dyker Heights","Stacked":2,"AnnoLine1":"Dyker","AnnoLine2":"Heights","AnnoLine3":" ","AnnoAngle":0,"Borough":"Brooklyn"}},{"type":"Feature","id":157,"geometry":{"type":"Point","coordinates":[-73.9808917607653,40.7178150071906]},"properties":{"FID":157,"Name":"Lower East Side","Stacked":3,"AnnoLine1":"Lower","AnnoLine2":"East","AnnoLine3":"Side","AnnoAngle":0,"Borough":"Manhattan"}},{"type":"Feature","id":158,"geometry":{"type":"Point","coordinates":[-73.9023361533632,40.6313257944364]},"properties":{"FID":158,"Name":"Paerdegat Basin","Stacked":2,"AnnoLine1":"Paerdegat","AnnoLine2":"Basin","AnnoLine3":" ","AnnoAngle":0,"Borough":"Brooklyn"}},{"type":"Feature","id":159,"geometry":{"type":"Point","coordinates":[-74.0106847361283,40.721530225389]},"properties":{"FID":159,"Name":"Tribeca","Stacked":1,"AnnoLine1":"Tribeca","AnnoLine2":" ","AnnoLine3":" ","AnnoAngle":0,"Borough":"Manhattan"}},{"type":"Feature","id":160,"geometry":{"type":"Point","coordinates":[-73.930103123774,40.5908566690197]},"properties":{"FID":160,"Name":"Gerritsen Beach","Stacked":2,"AnnoLine1":"Gerritsen","AnnoLine2":"Beach","AnnoLine3":" ","AnnoAngle":0,"Borough":"Brooklyn"}},{"type":"Feature","id":161,"geometry":{"type":"Point","coordinates":[-73.9151553290906,40.6159824802013]},"properties":{"FID":161,"Name":"Mill Basin","Stacked":2,"AnnoLine1":"Mill","AnnoLine2":"Basin","AnnoLine3":" ","AnnoAngle":0,"Borough":"Brooklyn"}},{"type":"Feature","id":162,"geometry":{"type":"Point","coordinates":[-73.9973061182011,40.7193320519437]},"properties":{"FID":162,"Name":"Little Italy","Stacked":2,"AnnoLine1":"Little","AnnoLine2":"Italy","AnnoLine3":" ","AnnoAngle":0,"Borough":"Manhattan"}},{"type":"Feature","id":163,"geometry":{"type":"Point","coordinates":[-73.7964660021256,40.7114679071637]},"properties":{"FID":163,"Name":"Jamaica Hills","Stacked":2,"AnnoLine1":"Jamaica","AnnoLine2":"Hills","AnnoLine3":" ","AnnoAngle":0,"Borough":"Queens"}},{"type":"Feature","id":164,"geometry":{"type":"Point","coordinates":[-73.9313454594792,40.6097560186842]},"properties":{"FID":164,"Name":"Marine Park","Stacked":1,"AnnoLine1":"Marine Park","AnnoLine2":" ","AnnoLine3":" ","AnnoAngle":0,"Borough":"Brooklyn"}},{"type":"Feature","id":165,"geometry":{"type":"Point","coordinates":[-74.0006581169647,40.7221920997453]},"properties":{"FID":165,"Name":"Soho","Stacked":1,"AnnoLine1":"Soho","AnnoLine2":" ","AnnoLine3":" ","AnnoAngle":0,"Borough":"Manhattan"}},{"type":"Feature","id":166,"geometry":{"type":"Point","coordinates":[-73.7967181629989,40.7335085220698]},"properties":{"FID":166,"Name":"Utopia","Stacked":1,"AnnoLine1":"Utopia","AnnoLine2":" ","AnnoLine3":" ","AnnoAngle":0,"Borough":"Queens"}},{"type":"Feature","id":167,"geometry":{"type":"Point","coordinates":[-73.9678444972715,40.6932376757838]},"properties":{"FID":167,"Name":"Clinton Hill","Stacked":2,"AnnoLine1":"Clinton","AnnoLine2":"Hill","AnnoLine3":" ","AnnoAngle":0,"Borough":"Brooklyn"}},{"type":"Feature","id":168,"geometry":{"type":"Point","coordinates":[-74.0061814311467,40.7344421963574]},"properties":{"FID":168,"Name":"West Village","Stacked":2,"AnnoLine1":"West","AnnoLine2":"Village","AnnoLine3":" ","AnnoAngle":0,"Borough":"Manhattan"}},{"type":"Feature","id":169,"geometry":{"type":"Point","coordinates":[-73.8048625858176,40.734944448525]},"properties":{"FID":169,"Name":"Pomonok","Stacked":1,"AnnoLine1":"Pomonok","AnnoLine2":" ","AnnoLine3":" ","AnnoAngle":0,"Borough":"Queens"}},{"type":"Feature","id":170,"geometry":{"type":"Point","coordinates":[-74.0078745528748,40.5763836084584]},"properties":{"FID":170,"Name":"Sea Gate","Stacked":2,"AnnoLine1":"Sea","AnnoLine2":"Gate","AnnoLine3":" ","AnnoAngle":0,"Borough":"Brooklyn"}},{"type":"Feature","id":171,"geometry":{"type":"Point","coordinates":[-73.9642876176832,40.797315316112]},"properties":{"FID":171,"Name":"Manhattan Valley","Stacked":2,"AnnoLine1":"Manhattan","AnnoLine2":"Valley","AnnoLine3":" ","AnnoAngle":0,"Borough":"Manhattan"}},{"type":"Feature","id":172,"geometry":{"type":"Point","coordinates":[-73.8946813790395,40.7703256645651]},"properties":{"FID":172,"Name":"Astoria Heights","Stacked":2,"AnnoLine1":"Astoria","AnnoLine2":"Heights","AnnoLine3":" ","AnnoAngle":0,"Borough":"Queens"}},{"type":"Feature","id":173,"geometry":{"type":"Point","coordinates":[-73.9834648142757,40.6908522739855]},"properties":{"FID":173,"Name":"Downtown","Stacked":1,"AnnoLine1":"Downtown","AnnoLine2":" ","AnnoLine3":" ","AnnoAngle":0,"Borough":"Brooklyn"}},{"type":"Feature","id":174,"geometry":{"type":"Point","coordinates":[-73.9638977198552,40.8080080146797]},"properties":{"FID":174,"Name":"Morningside Heights","Stacked":2,"AnnoLine1":"Morningside","AnnoLine2":"Heights","AnnoLine3":" ","AnnoAngle":0,"Borough":"Manhattan"}},{"type":"Feature","id":175,"geometry":{"type":"Point","coordinates":[-73.9012004560052,40.8314366249088]},"properties":{"FID":175,"Name":"Claremont Village","Stacked":2,"AnnoLine1":"Claremont","AnnoLine2":"Village","AnnoLine3":" ","AnnoAngle":0,"Borough":"Bronx"}},{"type":"Feature","id":176,"geometry":{"type":"Point","coordinates":[-73.9837496809018,40.6856911639568]},"properties":{"FID":176,"Name":"Boerum Hill","Stacked":2,"AnnoLine1":"Boerum","AnnoLine2":"Hill","AnnoLine3":" ","AnnoAngle":0,"Borough":"Brooklyn"}},{"type":"Feature","id":177,"geometry":{"type":"Point","coordinates":[-73.9813773904389,40.7372180947622]},"properties":{"FID":177,"Name":"Gramercy","Stacked":1,"AnnoLine1":"Gramercy","AnnoLine2":" ","AnnoLine3":" ","AnnoAngle":0,"Borough":"Manhattan"}},{"type":"Feature","id":178,"geometry":{"type":"Point","coordinates":[-73.9158479540108,40.8247887723234]},"properties":{"FID":178,"Name":"Concourse Village","Stacked":2,"AnnoLine1":"Concourse","AnnoLine2":"Village","AnnoLine3":" ","AnnoAngle":0,"Borough":"Bronx"}},{"type":"Feature","id":179,"geometry":{"type":"Point","coordinates":[-73.9549000996396,40.6584282649961]},"properties":{"FID":179,"Name":"Prospect Lefferts Gardens","Stacked":3,"AnnoLine1":"Prospect","AnnoLine2":"Lefferts","AnnoLine3":"Gardens","AnnoAngle":0,"Borough":"Brooklyn"}},{"type":"Feature","id":180,"geometry":{"type":"Point","coordinates":[-73.9165569474499,40.8438344618944]},"properties":{"FID":180,"Name":"Mount Eden","Stacked":2,"AnnoLine1":"Mount","AnnoLine2":"Eden","AnnoLine3":" ","AnnoAngle":0,"Borough":"Bronx"}},{"type":"Feature","id":181,"geometry":{"type":"Point","coordinates":[-74.0168707570228,40.7119402397953]},"properties":{"FID":181,"Name":"Battery Park City","Stacked":3,"AnnoLine1":"Battery","AnnoLine2":"Park","AnnoLine3":"City","AnnoAngle":0,"Borough":"Manhattan"}},{"type":"Feature","id":182,"geometry":{"type":"Point","coordinates":[-73.9130697345481,40.6784108077048]},"properties":{"FID":182,"Name":"Ocean Hill","Stacked":2,"AnnoLine1":"Ocean","AnnoLine2":"Hill","AnnoLine3":" ","AnnoAngle":0,"Borough":"Brooklyn"}},{"type":"Feature","id":183,"geometry":{"type":"Point","coordinates":[-73.9083007342834,40.8488498936941]},"properties":{"FID":183,"Name":"Mount Hope","Stacked":2,"AnnoLine1":"Mount","AnnoLine2":"Hope","AnnoLine3":" ","AnnoAngle":0,"Borough":"Bronx"}},{"type":"Feature","id":184,"geometry":{"type":"Point","coordinates":[-73.8679773830566,40.6785782117904]},"properties":{"FID":184,"Name":"City Line","Stacked":2,"AnnoLine1":"City","AnnoLine2":"Line","AnnoLine3":" ","AnnoAngle":0,"Borough":"Brooklyn"}},{"type":"Feature","id":185,"geometry":{"type":"Point","coordinates":[-74.0106668948706,40.7071153623923]},"properties":{"FID":185,"Name":"Financial District","Stacked":2,"AnnoLine1":"Financial","AnnoLine2":"District","AnnoLine3":" ","AnnoAngle":0,"Borough":"Manhattan"}},{"type":"Feature","id":186,"geometry":{"type":"Point","coordinates":[-73.9635575787376,40.7602885985034]},"properties":{"FID":186,"Name":"Sutton Place","Stacked":2,"AnnoLine1":"Sutton","AnnoLine2":"Place","AnnoLine3":" ","AnnoAngle":0,"Borough":"Manhattan"}},{"type":"Feature","id":187,"geometry":{"type":"Point","coordinates":[-73.8985577445278,40.6151577914475]},"properties":{"FID":187,"Name":"Bergen Beach","Stacked":2,"AnnoLine1":"Bergen","AnnoLine2":"Beach","AnnoLine3":" ","AnnoAngle":0,"Borough":"Brooklyn"}},{"type":"Feature","id":188,"geometry":{"type":"Point","coordinates":[-73.9156551659878,40.7685168638338]},"properties":{"FID":188,"Name":"Astoria","Stacked":1,"AnnoLine1":"Astoria","AnnoLine2":" ","AnnoLine3":" ","AnnoAngle":0,"Borough":"Queens"}},{"type":"Feature","id":189,"geometry":{"type":"Point","coordinates":[-73.9538692549762,40.7434223543002]},"properties":{"FID":189,"Name":"Hunters Point","Stacked":2,"AnnoLine1":"Hunters","AnnoLine2":"Point","AnnoLine3":" ","AnnoAngle":0,"Borough":"Queens"}},{"type":"Feature","id":190,"geometry":{"type":"Point","coordinates":[-73.9575966626466,40.6256041396854]},"properties":{"FID":190,"Name":"Midwood","Stacked":1,"AnnoLine1":"Midwood","AnnoLine2":" ","AnnoLine3":" ","AnnoAngle":0,"Borough":"Brooklyn"}},{"type":"Feature","id":191,"geometry":{"type":"Point","coordinates":[-73.9018430855618,40.7463573552249]},"properties":{"FID":191,"Name":"Woodside","Stacked":1,"AnnoLine1":"Woodside","AnnoLine2":" ","AnnoLine3":" ","AnnoAngle":0,"Borough":"Queens"}},{"type":"Feature","id":192,"geometry":{"type":"Point","coordinates":[-73.9677096844434,40.7520506349384]},"properties":{"FID":192,"Name":"Turtle Bay","Stacked":2,"AnnoLine1":"Turtle","AnnoLine2":"Bay","AnnoLine3":" ","AnnoAngle":0,"Borough":"Manhattan"}},{"type":"Feature","id":193,"geometry":{"type":"Point","coordinates":[-73.9626145978044,40.6470168482016]},"properties":{"FID":193,"Name":"Prospect Park South","Stacked":2,"AnnoLine1":"Prospect","AnnoLine2":"Park South","AnnoLine3":" ","AnnoAngle":0,"Borough":"Brooklyn"}},{"type":"Feature","id":194,"geometry":{"type":"Point","coordinates":[-73.8828225030683,40.7519896484645]},"properties":{"FID":194,"Name":"Jackson Heights","Stacked":2,"AnnoLine1":"Jackson","AnnoLine2":"Heights","AnnoLine3":" ","AnnoAngle":0,"Borough":"Queens"}},{"type":"Feature","id":195,"geometry":{"type":"Point","coordinates":[-73.9712207266616,40.7469256750447]},"properties":{"FID":195,"Name":"Tudor City","Stacked":2,"AnnoLine1":"Tudor","AnnoLine2":"City","AnnoLine3":" ","AnnoAngle":0,"Borough":"Manhattan"}},{"type":"Feature","id":196,"geometry":{"type":"Point","coordinates":[-73.9160762538674,40.6238534868767]},"properties":{"FID":196,"Name":"Georgetown","Stacked":1,"AnnoLine1":"Georgetown","AnnoLine2":" ","AnnoLine3":" ","AnnoAngle":0,"Borough":"Brooklyn"}},{"type":"Feature","id":197,"geometry":{"type":"Point","coordinates":[-73.8816576334561,40.7440567719996]},"properties":{"FID":197,"Name":"Elmhurst","Stacked":1,"AnnoLine1":"Elmhurst","AnnoLine2":" ","AnnoLine3":" ","AnnoAngle":0,"Borough":"Queens"}},{"type":"Feature","id":198,"geometry":{"type":"Point","coordinates":[-73.9740531440735,40.7310078158581]},"properties":{"FID":198,"Name":"Stuyvesant Town","Stacked":2,"AnnoLine1":"Stuyvesant","AnnoLine2":"Town","AnnoLine3":" ","AnnoAngle":0,"Borough":"Manhattan"}},{"type":"Feature","id":199,"geometry":{"type":"Point","coordinates":[-73.9388595794405,40.7085006683249]},"properties":{"FID":199,"Name":"East Williamsburg","Stacked":2,"AnnoLine1":"East","AnnoLine2":"Williamsburg","AnnoLine3":" ","AnnoAngle":0,"Borough":"Brooklyn"}},{"type":"Feature","id":200,"geometry":{"type":"Point","coordinates":[-73.8381390372272,40.6542335281602]},"properties":{"FID":200,"Name":"Howard Beach","Stacked":2,"AnnoLine1":"Howard","AnnoLine2":"Beach","AnnoLine3":" ","AnnoAngle":0,"Borough":"Queens"}},{"type":"Feature","id":201,"geometry":{"type":"Point","coordinates":[-73.9909485506008,40.7396813098322]},"properties":{"FID":201,"Name":"Flatiron","Stacked":1,"AnnoLine1":"Flatiron","AnnoLine2":" ","AnnoLine3":" ","AnnoAngle":0,"Borough":"Manhattan"}},{"type":"Feature","id":202,"geometry":{"type":"Point","coordinates":[-73.9588100093963,40.7148311649839]},"properties":{"FID":202,"Name":"North Side","Stacked":1,"AnnoLine1":"North Side","AnnoLine2":" ","AnnoLine3":" ","AnnoAngle":0,"Borough":"Brooklyn"}},{"type":"Feature","id":203,"geometry":{"type":"Point","coordinates":[-73.8568263759671,40.7423900175747]},"properties":{"FID":203,"Name":"Corona","Stacked":1,"AnnoLine1":"Corona","AnnoLine2":" ","AnnoLine3":" ","AnnoAngle":0,"Borough":"Queens"}},{"type":"Feature","id":204,"geometry":{"type":"Point","coordinates":[-73.9181942866924,40.7456600719949]},"properties":{"FID":204,"Name":"Sunnyside Gardens","Stacked":2,"AnnoLine1":"Sunnyside","AnnoLine2":"Gardens","AnnoLine3":" ","AnnoAngle":0,"Borough":"Queens"}},{"type":"Feature","id":205,"geometry":{"type":"Point","coordinates":[-73.9580023845556,40.7108697303543]},"properties":{"FID":205,"Name":"South Side","Stacked":1,"AnnoLine1":"South Side","AnnoLine2":" ","AnnoLine3":" ","AnnoAngle":0,"Borough":"Brooklyn"}},{"type":"Feature","id":206,"geometry":{"type":"Point","coordinates":[-73.8444764054149,40.7252720466588]},"properties":{"FID":206,"Name":"Forest Hills","Stacked":2,"AnnoLine1":"Forest","AnnoLine2":"Hills","AnnoLine3":" ","AnnoAngle":0,"Borough":"Queens"}},{"type":"Feature","id":207,"geometry":{"type":"Point","coordinates":[-73.9324437790341,40.7372589807147]},"properties":{"FID":207,"Name":"Blissville","Stacked":1,"AnnoLine1":"Blissville","AnnoLine2":" ","AnnoLine3":" ","AnnoAngle":0,"Borough":"Queens"}},{"type":"Feature","id":208,"geometry":{"type":"Point","coordinates":[-73.9683682107962,40.6130680048271]},"properties":{"FID":208,"Name":"Ocean Parkway","Stacked":2,"AnnoLine1":"Ocean","AnnoLine2":"Parkway","AnnoLine3":" ","AnnoAngle":0,"Borough":"Brooklyn"}},{"type":"Feature","id":209,"geometry":{"type":"Point","coordinates":[-73.8298204498771,40.7051872964808]},"properties":{"FID":209,"Name":"Kew Gardens","Stacked":2,"AnnoLine1":"Kew","AnnoLine2":"Gardens","AnnoLine3":" ","AnnoAngle":0,"Borough":"Queens"}},{"type":"Feature","id":210,"geometry":{"type":"Point","coordinates":[-73.9955089634574,40.7032893458338]},"properties":{"FID":210,"Name":"Fulton Ferry","Stacked":2,"AnnoLine1":"Fulton","AnnoLine2":"Ferry","AnnoLine3":" ","AnnoAngle":0,"Borough":"Brooklyn"}},{"type":"Feature","id":211,"geometry":{"type":"Point","coordinates":[-74.0319805962757,40.6147763631997]},"properties":{"FID":211,"Name":"Fort Hamilton","Stacked":2,"AnnoLine1":"Fort","AnnoLine2":"Hamilton","AnnoLine3":" ","AnnoAngle":0,"Borough":"Brooklyn"}},{"type":"Feature","id":212,"geometry":{"type":"Point","coordinates":[-73.8318346062995,40.6979555742948]},"properties":{"FID":212,"Name":"Richmond Hill","Stacked":2,"AnnoLine1":"Richmond","AnnoLine2":"Hill","AnnoLine3":" ","AnnoAngle":0,"Borough":"Queens"}},{"type":"Feature","id":213,"geometry":{"type":"Point","coordinates":[-73.9811174758918,40.7033297542447]},"properties":{"FID":213,"Name":"Vinegar Hill","Stacked":2,"AnnoLine1":"Vinegar","AnnoLine2":"Hill","AnnoLine3":" ","AnnoAngle":0,"Borough":"Brooklyn"}},{"type":"Feature","id":214,"geometry":{"type":"Point","coordinates":[-73.9942808074869,40.715626679679]},"properties":{"FID":214,"Name":"Chinatown","Stacked":1,"AnnoLine1":"Chinatown","AnnoLine2":" ","AnnoLine3":" ","AnnoAngle":0,"Borough":"Manhattan"}},{"type":"Feature","id":215,"geometry":{"type":"Point","coordinates":[-73.8317743991129,40.7644624695947]},"properties":{"FID":215,"Name":"Flushing","Stacked":1,"AnnoLine1":"Flushing","AnnoLine2":" ","AnnoLine3":" ","AnnoAngle":0,"Borough":"Queens"}},{"type":"Feature","id":216,"geometry":{"type":"Point","coordinates":[-73.9305325102365,40.675048116672]},"properties":{"FID":216,"Name":"Weeksville","Stacked":1,"AnnoLine1":"Weeksville","AnnoLine2":" ","AnnoLine3":" ","AnnoAngle":0,"Borough":"Brooklyn"}},{"type":"Feature","id":217,"geometry":{"type":"Point","coordinates":[-73.9369017146726,40.8519108115948]},"properties":{"FID":217,"Name":"Washington Heights","Stacked":2,"AnnoLine1":"Washington","AnnoLine2":" Heights","AnnoLine3":" ","AnnoAngle":0,"Borough":"Manhattan"}},{"type":"Feature","id":218,"geometry":{"type":"Point","coordinates":[-73.9392036685378,40.7502256121781]},"properties":{"FID":218,"Name":"Long Island City","Stacked":3,"AnnoLine1":"Long","AnnoLine2":"Island","AnnoLine3":"City","AnnoAngle":0,"Borough":"Queens"}},{"type":"Feature","id":219,"geometry":{"type":"Point","coordinates":[-73.9033182620448,40.677869300839]},"properties":{"FID":219,"Name":"Broadway Junction","Stacked":2,"AnnoLine1":"Broadway","AnnoLine2":"Junction","AnnoLine3":" ","AnnoAngle":0,"Borough":"Brooklyn"}},{"type":"Feature","id":220,"geometry":{"type":"Point","coordinates":[-73.9269176004548,40.7401845480555]},"properties":{"FID":220,"Name":"Sunnyside","Stacked":1,"AnnoLine1":"Sunnyside","AnnoLine2":" ","AnnoLine3":" ","AnnoAngle":0,"Borough":"Queens"}},{"type":"Feature","id":221,"geometry":{"type":"Point","coordinates":[-73.9887542498546,40.7031845833468]},"properties":{"FID":221,"Name":"Dumbo","Stacked":1,"AnnoLine1":"Dumbo","AnnoLine2":" ","AnnoLine3":" ","AnnoAngle":0,"Borough":"Brooklyn"}},{"type":"Feature","id":222,"geometry":{"type":"Point","coordinates":[-73.8670428836862,40.7640815101414]},"properties":{"FID":222,"Name":"East Elmhurst","Stacked":2,"AnnoLine1":"East","AnnoLine2":"Elmhurst","AnnoLine3":" ","AnnoAngle":0,"Borough":"Queens"}},{"type":"Feature","id":223,"geometry":{"type":"Point","coordinates":[-74.1205954756335,40.6018178069169]},"properties":{"FID":223,"Name":"Manor Heights","Stacked":2,"AnnoLine1":"Manor","AnnoLine2":"Heights","AnnoLine3":" ","AnnoAngle":0,"Borough":"Staten Island"}},{"type":"Feature","id":224,"geometry":{"type":"Point","coordinates":[-73.8962185503816,40.7254356368134]},"properties":{"FID":224,"Name":"Maspeth","Stacked":1,"AnnoLine1":"Maspeth","AnnoLine2":" ","AnnoLine3":" ","AnnoAngle":0,"Borough":"Queens"}},{"type":"Feature","id":225,"geometry":{"type":"Point","coordinates":[-74.1320859570852,40.6037151568448]},"properties":{"FID":225,"Name":"Willowbrook","Stacked":1,"AnnoLine1":"Willowbrook","AnnoLine2":" ","AnnoLine3":" ","AnnoAngle":0,"Borough":"Staten Island"}},{"type":"Feature","id":226,"geometry":{"type":"Point","coordinates":[-73.9014365903482,40.7083314153231]},"properties":{"FID":226,"Name":"Ridgewood","Stacked":1,"AnnoLine1":"Ridgewood","AnnoLine2":" ","AnnoLine3":" ","AnnoAngle":0,"Borough":"Queens"}},{"type":"Feature","id":227,"geometry":{"type":"Point","coordinates":[-74.217767866523,40.5411481373525]},"properties":{"FID":227,"Name":"Sandy Ground","Stacked":2,"AnnoLine1":"Sandy","AnnoLine2":"Ground","AnnoLine3":" ","AnnoAngle":0,"Borough":"Staten Island"}},{"type":"Feature","id":228,"geometry":{"type":"Point","coordinates":[-74.1272738852658,40.5791269688712]},"properties":{"FID":228,"Name":"Egbertville","Stacked":1,"AnnoLine1":"Egbertville","AnnoLine2":" ","AnnoLine3":" ","AnnoAngle":0,"Borough":"Staten Island"}},{"type":"Feature","id":229,"geometry":{"type":"Point","coordinates":[-73.8707430789412,40.7027706888439]},"properties":{"FID":229,"Name":"Glendale","Stacked":1,"AnnoLine1":"Glendale","AnnoLine2":" ","AnnoLine3":" ","AnnoAngle":0,"Borough":"Queens"}},{"type":"Feature","id":230,"geometry":{"type":"Point","coordinates":[-73.8921390056361,40.5673841213933]},"properties":{"FID":230,"Name":"Roxbury","Stacked":1,"AnnoLine1":"Roxbury","AnnoLine2":" ","AnnoLine3":" ","AnnoAngle":0,"Borough":"Queens"}},{"type":"Feature","id":231,"geometry":{"type":"Point","coordinates":[-73.9591860209157,40.5985333307493]},"properties":{"FID":231,"Name":"Homecrest","Stacked":1,"AnnoLine1":"Homecrest","AnnoLine2":" ","AnnoLine3":" ","AnnoAngle":0,"Borough":"Brooklyn"}},{"type":"Feature","id":232,"geometry":{"type":"Point","coordinates":[-73.8578282710807,40.7289823595628]},"properties":{"FID":232,"Name":"Rego Park","Stacked":1,"AnnoLine1":"Rego Park","AnnoLine2":" ","AnnoLine3":" ","AnnoAngle":0,"Borough":"Queens"}},{"type":"Feature","id":233,"geometry":{"type":"Point","coordinates":[-73.8811446007461,40.7164227726378]},"properties":{"FID":233,"Name":"Middle Village","Stacked":2,"AnnoLine1":"Middle","AnnoLine2":"Village","AnnoLine3":" ","AnnoAngle":0,"Borough":"Queens"}},{"type":"Feature","id":234,"geometry":{"type":"Point","coordinates":[-73.8581118653072,40.6898951362381]},"properties":{"FID":234,"Name":"Woodhaven","Stacked":1,"AnnoLine1":"Woodhaven","AnnoLine2":" ","AnnoLine3":" ","AnnoAngle":0,"Borough":"Queens"}},{"type":"Feature","id":235,"geometry":{"type":"Point","coordinates":[-74.201527064326,40.5262722802554]},"properties":{"FID":235,"Name":"Prince's Bay","Stacked":2,"AnnoLine1":"Prince's","AnnoLine2":"Bay","AnnoLine3":" ","AnnoAngle":0,"Borough":"Staten Island"}},{"type":"Feature","id":236,"geometry":{"type":"Point","coordinates":[-73.8432040561712,40.6807167240639]},"properties":{"FID":236,"Name":"Ozone Park","Stacked":1,"AnnoLine1":"Ozone Park","AnnoLine2":" ","AnnoLine3":" ","AnnoAngle":0,"Borough":"Queens"}},{"type":"Feature","id":237,"geometry":{"type":"Point","coordinates":[-74.1379281201799,40.5765145188171]},"properties":{"FID":237,"Name":"Lighthouse Hill","Stacked":2,"AnnoLine1":"Lighthouse","AnnoLine2":"Hill","AnnoLine3":" ","AnnoAngle":0,"Borough":"Staten Island"}},{"type":"Feature","id":238,"geometry":{"type":"Point","coordinates":[-73.809866169518,40.6685578322437]},"properties":{"FID":238,"Name":"South Ozone Park","Stacked":2,"AnnoLine1":"South","AnnoLine2":"Ozone Park","AnnoLine3":" ","AnnoAngle":0,"Borough":"Queens"}},{"type":"Feature","id":239,"geometry":{"type":"Point","coordinates":[-74.2295723145702,40.5195496680864]},"properties":{"FID":239,"Name":"Richmond Valley","Stacked":2,"AnnoLine1":"Richmond","AnnoLine2":"Valley","AnnoLine3":" ","AnnoAngle":0,"Borough":"Staten Island"}},{"type":"Feature","id":240,"geometry":{"type":"Point","coordinates":[-73.8266789671487,40.7906098346151]},"properties":{"FID":240,"Name":"Malba","Stacked":1,"AnnoLine1":"Malba","AnnoLine2":" ","AnnoLine3":" ","AnnoAngle":0,"Borough":"Queens"}},{"type":"Feature","id":241,"geometry":{"type":"Point","coordinates":[-73.8430466896267,40.7849110254869]},"properties":{"FID":241,"Name":"College Point","Stacked":2,"AnnoLine1":"College","AnnoLine2":"Point","AnnoLine3":" ","AnnoAngle":0,"Borough":"Queens"}},{"type":"Feature","id":242,"geometry":{"type":"Point","coordinates":[-73.890347119486,40.6820071889256]},"properties":{"FID":242,"Name":"Highland Park","Stacked":2,"AnnoLine1":"Highland","AnnoLine2":"Park","AnnoLine3":" ","AnnoAngle":0,"Borough":"Brooklyn"}},{"type":"Feature","id":243,"geometry":{"type":"Point","coordinates":[-73.8142035573088,40.781299042553]},"properties":{"FID":243,"Name":"Whitestone","Stacked":1,"AnnoLine1":"Whitestone","AnnoLine2":" ","AnnoLine3":" ","AnnoAngle":0,"Borough":"Queens"}},{"type":"Feature","id":244,"geometry":{"type":"Point","coordinates":[-73.9484165771239,40.6093859392587]},"properties":{"FID":244,"Name":"Madison","Stacked":1,"AnnoLine1":"Madison","AnnoLine2":" ","AnnoLine3":" ","AnnoAngle":0,"Borough":"Brooklyn"}},{"type":"Feature","id":245,"geometry":{"type":"Point","coordinates":[-73.8617271863149,40.8527312651677]},"properties":{"FID":245,"Name":"Bronxdale","Stacked":1,"AnnoLine1":"Bronxdale","AnnoLine2":" ","AnnoLine3":" ","AnnoAngle":0,"Borough":"Bronx"}},{"type":"Feature","id":246,"geometry":{"type":"Point","coordinates":[-73.7742750081655,40.766048907741]},"properties":{"FID":246,"Name":"Bayside","Stacked":1,"AnnoLine1":"Bayside","AnnoLine2":" ","AnnoLine3":" ","AnnoAngle":0,"Borough":"Queens"}},{"type":"Feature","id":247,"geometry":{"type":"Point","coordinates":[-73.8593200430016,40.8657961695041]},"properties":{"FID":247,"Name":"Allerton","Stacked":1,"AnnoLine1":"Allerton","AnnoLine2":" ","AnnoLine3":" ","AnnoAngle":0,"Borough":"Bronx"}},{"type":"Feature","id":248,"geometry":{"type":"Point","coordinates":[-73.7917638201071,40.7617378225096]},"properties":{"FID":248,"Name":"Auburndale","Stacked":1,"AnnoLine1":"Auburndale","AnnoLine2":" ","AnnoLine3":" ","AnnoAngle":0,"Borough":"Queens"}},{"type":"Feature","id":249,"geometry":{"type":"Point","coordinates":[-73.901524069733,40.8704006823092]},"properties":{"FID":249,"Name":"Kingsbridge Heights","Stacked":2,"AnnoLine1":"Kingsbridge","AnnoLine2":"Heights","AnnoLine3":" ","AnnoAngle":0,"Borough":"Bronx"}},{"type":"Feature","id":250,"geometry":{"type":"Point","coordinates":[-73.7388991222304,40.770834469925]},"properties":{"FID":250,"Name":"Little Neck","Stacked":2,"AnnoLine1":"Little","AnnoLine2":"Neck","AnnoLine3":" ","AnnoAngle":0,"Borough":"Queens"}},{"type":"Feature","id":251,"geometry":{"type":"Point","coordinates":[-73.94817852522,40.6469343120907]},"properties":{"FID":251,"Name":"Erasmus","Stacked":1,"AnnoLine1":"Erasmus","AnnoLine2":" ","AnnoLine3":" ","AnnoAngle":0,"Borough":"Brooklyn"}},{"type":"Feature","id":252,"geometry":{"type":"Point","coordinates":[-73.7424995746116,40.766854374101]},"properties":{"FID":252,"Name":"Douglaston","Stacked":1,"AnnoLine1":"Douglaston","AnnoLine2":" ","AnnoLine3":" ","AnnoAngle":0,"Borough":"Queens"}},{"type":"Feature","id":253,"geometry":{"type":"Point","coordinates":[-74.0001128113105,40.7566663474729]},"properties":{"FID":253,"Name":"Hudson Yards","Stacked":2,"AnnoLine1":"Hudson","AnnoLine2":"Yards","AnnoLine3":" ","AnnoAngle":0,"Borough":"Manhattan"}},{"type":"Feature","id":254,"geometry":{"type":"Point","coordinates":[-73.7154825476206,40.7494490734639]},"properties":{"FID":254,"Name":"Glen Oaks","Stacked":2,"AnnoLine1":"Glen","AnnoLine2":"Oaks","AnnoLine3":" ","AnnoAngle":0,"Borough":"Queens"}},{"type":"Feature","id":255,"geometry":{"type":"Point","coordinates":[-73.805531406468,40.5873459789472]},"properties":{"FID":255,"Name":"Hammels","Stacked":1,"AnnoLine1":"Hammels","AnnoLine2":" ","AnnoLine3":" ","AnnoAngle":0,"Borough":"Queens"}},{"type":"Feature","id":256,"geometry":{"type":"Point","coordinates":[-73.7201295061366,40.7285814512342]},"properties":{"FID":256,"Name":"Bellerose","Stacked":1,"AnnoLine1":"Bellerose","AnnoLine2":" ","AnnoLine3":" ","AnnoAngle":0,"Borough":"Queens"}},{"type":"Feature","id":257,"geometry":{"type":"Point","coordinates":[-73.7659691800003,40.6113299361333]},"properties":{"FID":257,"Name":"Bayswater","Stacked":1,"AnnoLine1":"Bayswater","AnnoLine2":" ","AnnoLine3":" ","AnnoAngle":0,"Borough":"Queens"}},{"type":"Feature","id":258,"geometry":{"type":"Point","coordinates":[-73.8208790391374,40.7225865090177]},"properties":{"FID":258,"Name":"Kew Gardens Hills","Stacked":3,"AnnoLine1":"Kew","AnnoLine2":"Gardens","AnnoLine3":"Hills","AnnoAngle":0,"Borough":"Queens"}},{"type":"Feature","id":259,"geometry":{"type":"Point","coordinates":[-73.9456321351389,40.7560995640925]},"properties":{"FID":259,"Name":"Queensbridge","Stacked":1,"AnnoLine1":"Queensbridge","AnnoLine2":" ","AnnoLine3":" ","AnnoAngle":0,"Borough":"Queens"}},{"type":"Feature","id":260,"geometry":{"type":"Point","coordinates":[-73.7827147483133,40.7344027337661]},"properties":{"FID":260,"Name":"Fresh Meadows","Stacked":2,"AnnoLine1":"Fresh","AnnoLine2":"Meadows","AnnoLine3":" ","AnnoAngle":0,"Borough":"Queens"}},{"type":"Feature","id":261,"geometry":{"type":"Point","coordinates":[-74.0817413890857,40.6173190275414]},"properties":{"FID":261,"Name":"Fox Hills","Stacked":2,"AnnoLine1":"Fox","AnnoLine2":"Hills","AnnoLine3":" ","AnnoAngle":0,"Borough":"Staten Island"}},{"type":"Feature","id":262,"geometry":{"type":"Point","coordinates":[-73.8117496107622,40.710943735347]},"properties":{"FID":262,"Name":"Briarwood","Stacked":1,"AnnoLine1":"Briarwood","AnnoLine2":" ","AnnoLine3":" ","AnnoAngle":0,"Borough":"Queens"}},{"type":"Feature","id":263,"geometry":{"type":"Point","coordinates":[-73.796903039924,40.7046656227965]},"properties":{"FID":263,"Name":"Jamaica Center","Stacked":2,"AnnoLine1":"Jamaica","AnnoLine2":"Center","AnnoLine3":" ","AnnoAngle":0,"Borough":"Queens"}},{"type":"Feature","id":264,"geometry":{"type":"Point","coordinates":[-73.7549511323982,40.7456268430191]},"properties":{"FID":264,"Name":"Oakland Gardens","Stacked":2,"AnnoLine1":"Oakland","AnnoLine2":"Gardens","AnnoLine3":" ","AnnoAngle":0,"Borough":"Queens"}},{"type":"Feature","id":265,"geometry":{"type":"Point","coordinates":[-73.7387162090303,40.7189013590911]},"properties":{"FID":265,"Name":"Queens Village","Stacked":2,"AnnoLine1":"Queens","AnnoLine2":"Village","AnnoLine3":" ","AnnoAngle":0,"Borough":"Queens"}},{"type":"Feature","id":266,"geometry":{"type":"Point","coordinates":[-73.7592514627256,40.7112517066291]},"properties":{"FID":266,"Name":"Hollis","Stacked":1,"AnnoLine1":"Hollis","AnnoLine2":" ","AnnoLine3":" ","AnnoAngle":0,"Borough":"Queens"}},{"type":"Feature","id":267,"geometry":{"type":"Point","coordinates":[-73.7904275098565,40.6969195146045]},"properties":{"FID":267,"Name":"South Jamaica","Stacked":1,"AnnoLine1":"South Jamaica","AnnoLine2":" ","AnnoLine3":" ","AnnoAngle":0,"Borough":"Queens"}},{"type":"Feature","id":268,"geometry":{"type":"Point","coordinates":[-73.7586774054557,40.6944536466573]},"properties":{"FID":268,"Name":"St. Albans","Stacked":1,"AnnoLine1":"St. Albans","AnnoLine2":" ","AnnoLine3":" ","AnnoAngle":0,"Borough":"Queens"}},{"type":"Feature","id":269,"geometry":{"type":"Point","coordinates":[-73.7725892476932,40.6752196530922]},"properties":{"FID":269,"Name":"Rochdale","Stacked":1,"AnnoLine1":"Rochdale","AnnoLine2":" ","AnnoLine3":" ","AnnoAngle":0,"Borough":"Queens"}},{"type":"Feature","id":270,"geometry":{"type":"Point","coordinates":[-73.760422293871,40.6662387462021]},"properties":{"FID":270,"Name":"Springfield Gardens","Stacked":2,"AnnoLine1":"Springfield","AnnoLine2":"Gardens","AnnoLine3":" ","AnnoAngle":0,"Borough":"Queens"}},{"type":"Feature","id":271,"geometry":{"type":"Point","coordinates":[-73.7352700976569,40.6927829010789]},"properties":{"FID":271,"Name":"Cambria Heights","Stacked":2,"AnnoLine1":"Cambria","AnnoLine2":"Heights","AnnoLine3":" ","AnnoAngle":0,"Borough":"Queens"}},{"type":"Feature","id":272,"geometry":{"type":"Point","coordinates":[-73.7352621528857,40.6598246888741]},"properties":{"FID":272,"Name":"Rosedale","Stacked":1,"AnnoLine1":"Rosedale","AnnoLine2":" ","AnnoLine3":" ","AnnoAngle":0,"Borough":"Queens"}},{"type":"Feature","id":273,"geometry":{"type":"Point","coordinates":[-73.7549810419754,40.6031426761206]},"properties":{"FID":273,"Name":"Far Rockaway","Stacked":2,"AnnoLine1":"Far Rockaway","AnnoLine2":" ","AnnoLine3":" ","AnnoAngle":0,"Borough":"Queens"}},{"type":"Feature","id":274,"geometry":{"type":"Point","coordinates":[-73.8200562734714,40.6030348248542]},"properties":{"FID":274,"Name":"Broad Channel","Stacked":2,"AnnoLine1":"Broad","AnnoLine2":"Channel","AnnoLine3":" ","AnnoAngle":0,"Borough":"Queens"}},{"type":"Feature","id":275,"geometry":{"type":"Point","coordinates":[-73.9255133833304,40.5574095171527]},"properties":{"FID":275,"Name":"Breezy Point","Stacked":2,"AnnoLine1":"Breezy","AnnoLine2":"Point","AnnoLine3":" ","AnnoAngle":0,"Borough":"Queens"}},{"type":"Feature","id":276,"geometry":{"type":"Point","coordinates":[-73.9022910230286,40.7759312880409]},"properties":{"FID":276,"Name":"Steinway","Stacked":1,"AnnoLine1":"Steinway","AnnoLine2":" ","AnnoLine3":" ","AnnoAngle":0,"Borough":"Queens"}},{"type":"Feature","id":277,"geometry":{"type":"Point","coordinates":[-73.8043659059494,40.7927896827192]},"properties":{"FID":277,"Name":"Beechhurst","Stacked":1,"AnnoLine1":"Beechhurst","AnnoLine2":" ","AnnoLine3":" ","AnnoAngle":0,"Borough":"Queens"}},{"type":"Feature","id":278,"geometry":{"type":"Point","coordinates":[-73.7768036055176,40.7828510843788]},"properties":{"FID":278,"Name":"Bay Terrace","Stacked":2,"AnnoLine1":"Bay","AnnoLine2":"Terrace","AnnoLine3":" ","AnnoAngle":0,"Borough":"Queens"}},{"type":"Feature","id":279,"geometry":{"type":"Point","coordinates":[-73.7761341917809,40.5956500487814]},"properties":{"FID":279,"Name":"Edgemere","Stacked":1,"AnnoLine1":"Edgemere","AnnoLine2":" ","AnnoLine3":" ","AnnoAngle":0,"Borough":"Queens"}},{"type":"Feature","id":280,"geometry":{"type":"Point","coordinates":[-73.7919937039238,40.5891521833144]},"properties":{"FID":280,"Name":"Arverne","Stacked":1,"AnnoLine1":"Arverne","AnnoLine2":" ","AnnoLine3":" ","AnnoAngle":0,"Borough":"Queens"}},{"type":"Feature","id":281,"geometry":{"type":"Point","coordinates":[-73.8223625927857,40.5828099341288]},"properties":{"FID":281,"Name":"Rockaway Beach","Stacked":2,"AnnoLine1":"Rockaway","AnnoLine2":"Beach","AnnoLine3":" ","AnnoAngle":0,"Borough":"Queens"}},{"type":"Feature","id":282,"geometry":{"type":"Point","coordinates":[-73.8575481166255,40.57204496416]},"properties":{"FID":282,"Name":"Neponsit","Stacked":1,"AnnoLine1":"Neponsit","AnnoLine2":" ","AnnoLine3":" ","AnnoAngle":0,"Borough":"Queens"}},{"type":"Feature","id":283,"geometry":{"type":"Point","coordinates":[-73.8127640810619,40.7641343958289]},"properties":{"FID":283,"Name":"Murray Hill","Stacked":2,"AnnoLine1":"Murray","AnnoLine2":"Hill","AnnoLine3":" ","AnnoAngle":0,"Borough":"Queens"}},{"type":"Feature","id":284,"geometry":{"type":"Point","coordinates":[-73.7088484139106,40.7413866943155]},"properties":{"FID":284,"Name":"Floral Park","Stacked":1,"AnnoLine1":"Floral Park","AnnoLine2":" ","AnnoLine3":" ","AnnoAngle":0,"Borough":"Queens"}},{"type":"Feature","id":285,"geometry":{"type":"Point","coordinates":[-73.7671430396293,40.7209654739857]},"properties":{"FID":285,"Name":"Holliswood","Stacked":1,"AnnoLine1":"Holliswood","AnnoLine2":" ","AnnoLine3":" ","AnnoAngle":0,"Borough":"Queens"}},{"type":"Feature","id":286,"geometry":{"type":"Point","coordinates":[-73.7872283480369,40.7168130949748]},"properties":{"FID":286,"Name":"Jamaica Estates","Stacked":2,"AnnoLine1":"Jamaica","AnnoLine2":"Estates","AnnoLine3":" ","AnnoAngle":0,"Borough":"Queens"}},{"type":"Feature","id":287,"geometry":{"type":"Point","coordinates":[-73.8258105438122,40.7445805782158]},"properties":{"FID":287,"Name":"Queensboro Hill","Stacked":2,"AnnoLine1":"Queensboro","AnnoLine2":"Hill","AnnoLine3":" ","AnnoAngle":0,"Borough":"Queens"}},{"type":"Feature","id":288,"geometry":{"type":"Point","coordinates":[-73.7976043915444,40.7238331676736]},"properties":{"FID":288,"Name":"Hillcrest","Stacked":1,"AnnoLine1":"Hillcrest","AnnoLine2":" ","AnnoLine3":" ","AnnoAngle":0,"Borough":"Queens"}},{"type":"Feature","id":289,"geometry":{"type":"Point","coordinates":[-73.9315764883637,40.7617127946434]},"properties":{"FID":289,"Name":"Ravenswood","Stacked":1,"AnnoLine1":"Ravenswood","AnnoLine2":" ","AnnoLine3":" ","AnnoAngle":0,"Borough":"Queens"}},{"type":"Feature","id":290,"geometry":{"type":"Point","coordinates":[-73.8496392195138,40.6639266715299]},"properties":{"FID":290,"Name":"Lindenwood","Stacked":1,"AnnoLine1":"Lindenwood","AnnoLine2":" ","AnnoLine3":" ","AnnoAngle":0,"Borough":"Queens"}},{"type":"Feature","id":291,"geometry":{"type":"Point","coordinates":[-73.740257440584,40.6678921534601]},"properties":{"FID":291,"Name":"Laurelton","Stacked":1,"AnnoLine1":"Laurelton","AnnoLine2":" ","AnnoLine3":" ","AnnoAngle":0,"Borough":"Queens"}},{"type":"Feature","id":292,"geometry":{"type":"Point","coordinates":[-73.8625261180979,40.7360828368139]},"properties":{"FID":292,"Name":"Lefrak City","Stacked":2,"AnnoLine1":"Lefrak","AnnoLine2":"City","AnnoLine3":" ","AnnoAngle":0,"Borough":"Queens"}},{"type":"Feature","id":293,"geometry":{"type":"Point","coordinates":[-73.854018895559,40.5761638003072]},"properties":{"FID":293,"Name":"Belle Harbor","Stacked":1,"AnnoLine1":"Belle Harbor","AnnoLine2":" ","AnnoLine3":" ","AnnoAngle":0,"Borough":"Queens"}},{"type":"Feature","id":294,"geometry":{"type":"Point","coordinates":[-73.8415350901502,40.580351192595]},"properties":{"FID":294,"Name":"Rockaway Park","Stacked":1,"AnnoLine1":"Rockaway Park","AnnoLine2":" ","AnnoLine3":" ","AnnoAngle":0,"Borough":"Queens"}},{"type":"Feature","id":295,"geometry":{"type":"Point","coordinates":[-73.7966488829966,40.5977188567663]},"properties":{"FID":295,"Name":"Somerville","Stacked":1,"AnnoLine1":"Somerville","AnnoLine2":" ","AnnoLine3":" ","AnnoAngle":0,"Borough":"Queens"}},{"type":"Feature","id":296,"geometry":{"type":"Point","coordinates":[-73.75175447121,40.6600114822471]},"properties":{"FID":296,"Name":"Brookville","Stacked":1,"AnnoLine1":"Brookville","AnnoLine2":" ","AnnoLine3":" ","AnnoAngle":0,"Borough":"Queens"}},{"type":"Feature","id":297,"geometry":{"type":"Point","coordinates":[-73.7388933532746,40.7330223099655]},"properties":{"FID":297,"Name":"Bellaire","Stacked":1,"AnnoLine1":"Bellaire","AnnoLine2":" ","AnnoLine3":" ","AnnoAngle":0,"Borough":"Queens"}},{"type":"Feature","id":298,"geometry":{"type":"Point","coordinates":[-73.8575193102065,40.7540792687329]},"properties":{"FID":298,"Name":"North Corona","Stacked":2,"AnnoLine1":"North","AnnoLine2":"Corona","AnnoLine3":" ","AnnoAngle":0,"Borough":"Queens"}},{"type":"Feature","id":299,"geometry":{"type":"Point","coordinates":[-73.8410235081173,40.7146193440372]},"properties":{"FID":299,"Name":"Forest Hills Gardens","Stacked":3,"AnnoLine1":"Forest","AnnoLine2":"Hills","AnnoLine3":"Gardens","AnnoAngle":0,"Borough":"Queens"}},{"type":"Feature","id":300,"geometry":{"type":"Point","coordinates":[-74.0793545930049,40.6449898115314]},"properties":{"FID":300,"Name":"St. George","Stacked":2,"AnnoLine1":"St.","AnnoLine2":"George","AnnoLine3":" ","AnnoAngle":0,"Borough":"Staten Island"}},{"type":"Feature","id":301,"geometry":{"type":"Point","coordinates":[-74.0870179752302,40.6406227985359]},"properties":{"FID":301,"Name":"New Brighton","Stacked":2,"AnnoLine1":"New","AnnoLine2":"Brighton","AnnoLine3":" ","AnnoAngle":0,"Borough":"Staten Island"}},{"type":"Feature","id":302,"geometry":{"type":"Point","coordinates":[-74.0779033929208,40.6269358624163]},"properties":{"FID":302,"Name":"Stapleton","Stacked":1,"AnnoLine1":"Stapleton","AnnoLine2":" ","AnnoLine3":" ","AnnoAngle":0,"Borough":"Staten Island"}},{"type":"Feature","id":303,"geometry":{"type":"Point","coordinates":[-74.0698067301891,40.6153131815642]},"properties":{"FID":303,"Name":"Rosebank","Stacked":1,"AnnoLine1":"Rosebank","AnnoLine2":" ","AnnoLine3":" ","AnnoAngle":0,"Borough":"Staten Island"}},{"type":"Feature","id":304,"geometry":{"type":"Point","coordinates":[-74.1071832586409,40.6318871635237]},"properties":{"FID":304,"Name":"West Brighton","Stacked":2,"AnnoLine1":"West","AnnoLine2":"Brighton","AnnoLine3":" ","AnnoAngle":0,"Borough":"Staten Island"}},{"type":"Feature","id":305,"geometry":{"type":"Point","coordinates":[-74.0872496689809,40.6241930274808]},"properties":{"FID":305,"Name":"Grymes Hill","Stacked":2,"AnnoLine1":"Grymes","AnnoLine2":"Hill","AnnoLine3":" ","AnnoAngle":0,"Borough":"Staten Island"}},{"type":"Feature","id":306,"geometry":{"type":"Point","coordinates":[-74.111330293213,40.5970767481436]},"properties":{"FID":306,"Name":"Todt Hill","Stacked":2,"AnnoLine1":"Todt","AnnoLine2":"Hill","AnnoLine3":" ","AnnoAngle":0,"Borough":"Staten Island"}}]}